Company ID,Address,Zip Code,Company Name,Industry,Latitude,Longitude,Last Outcome,Last Outreach Date,Days Since Last Contact,Next Step Due Countdown,Next Steps Due Date,Contact Status,Close Probability,Priority Score,UrgencyBand,Urgency Score,Totals
CID-CNC002,"11790 FM3270, Tyler, TX 75708",75708,CNC Fabrication,Metal,32.4352525,-95.1940445,Interested,01/15/2026,56,68,02/18/2026,Disqualified,0,95,High,115,102.5
CID-HOL003,"4301 Old Troup Hwy, Tyler, TX 75707",75707,Holliday Sheet Metal Co,Metal,32.3041014,-95.2666812,Follow-up,01/13/2026,2,,,FOLLOW-UP REQUIRED,0.2,95,High,150,175
CID-STA004,"11967 State Hwy 64, Tyler, TX 75704",75704,Stainless Steel Fabricators,Metal,32.3575579,-95.364907,Initial contact,12/22/2025,24,,,FOLLOW-UP REQUIRED,0.2,95,High,150,175
CID-TEX005,"10544 FM2908, Tyler, TX 75708",75708,Texas Metal Carports,Metal,32.4124222,-95.1677719,Account Won,11/25/2025,51,-12,11/30/2025,Won,1,95,High,170,205
CID-ONE006,"14762 TX-110, Whitehouse, TX 75791",75791,One-Ten Welding,Metal,32.2639775,-95.2405148,Initial Contact,01/09/2026,6,,,FOLLOW-UP REQUIRED,0.2,95,High,150,175
CID-CAT007,"12198 State Hwy 64, Tyler, TX 75704",75704,Cates Machine Shop,Metal,32.3592199,-95.3688191,Interested,11/14/2025,62,62,02/12/2026,FOLLOW-UP REQUIRED,0.2,95,High,150,175
CID-CRA008,"18199 County Rd 4108, Lindale, TX 75771",75771,Craig's Dirt Service,Metal,32.531384,-95.400937,No Outreach,12/30/1899,,,,Never Contacted,0,95,High,145,167.5
CID-GLE009,"3025 Old Henderson Hwy, Tyler, TX 75707",75707,Glenwood Blind & Awning,Metal,32.3386998,-95.2626079,Interested (Hot),12/30/1899,,,,Never Contacted,0,95,High,145,167.5
CID-PAC010,"10551 Pac Rd, Tyler, TX 75707",75707,PAC-CLAD | Petersen,Metal,32.2904588,-95.2357853,No Outreach,12/30/1899,,,,Never Contacted,0,95,High,145,167.5
CID-SQU011,"16421 FM 756, Tyler, TX 75703",75703,Squiers Metal Fabrication Inc,Metal,32.2413257,-95.2718047,Not Interested,01/11/2026,-24,,,Nurture,0.3,95,High,152.5,178.75
CID-TAY012,"10801 County Rd 1268, Flint, TX 75762",75762,Taylor Buildings LLC,Metal,32.2302649,-95.3473579,No Outreach,12/30/1899,,,,Never Contacted,0,95,High,145,167.5
CID-EMO013,"1634 Pinion Rd, Gilmer, TX 75645",75645,Emory Custom Tooling,Metal,32.625261,-94.995569,No Outreach,12/30/1899,,,,Never Contacted,0,95,High,145,167.5
CID-AAR014,"18410 FM 2767, Winona, TX 75792",75792,AARON MCGAUGHEY,Metal,32.3812614,-95.0955328,No Outreach,12/30/1899,,,,Never Contacted,0,95,High,145,167.5
CID-ALL015,"4425 DC Dr A, Tyler, TX 75701",75701,All Star Fabrication Inc.,Metal,32.3007439,-95.3253438,Not Interested,12/30/1899,,,,Never Contacted,0,95,High,145,167.5
CID-AME016,"Bullard, TX 75757",75757,American Plasti-Plate Corporation,Metal,32.1398804,-95.320229,No Outreach,12/30/1899,,,,Never Contacted,0,95,High,145,167.5
CID-ATH017,"900 NE Loop 7, Athens, TX 75752",75752,Athens Steel Building Corporation,Metal,32.2254166,-95.8421472,No Outreach,12/30/1899,,6,12/18/2025,Never Contacted,0,95,High,145,167.5
CID-BLU018,"1829 Norman Dr, Jacksonville, TX 75766",75766,Blue Goose Customs & Fabrication LLC,Metal,31.9388419,-95.2652455,No Outreach,12/30/1899,,6,12/18/2025,Never Contacted,0,95,High,145,167.5
CID-BOY019,"8102 County Rd 313 E, Tyler, TX 75706",75706,Boyd Metals,Metal,32.4687072,-95.2469972,No Outreach,12/30/1899,,,,Never Contacted,0,95,High,145,167.5
CID-CON020,"729 N Fleishel Ave, Tyler, TX 75702",75702,Contract Manufacturers Ltd,Metal,32.3576834,-95.28798,No Outreach,12/30/1899,,,,Never Contacted,0,95,High,145,167.5
CID-DNA021,"2702 TX-42, Kilgore, TX 75662",75662,DNA Fabrication,Metal,32.4041094,-94.8685191,No Outreach,12/30/1899,,,,Never Contacted,0,95,High,145,167.5
CID-EAS022,"9200 FM2329, Athens, TX 75751",75751,East Texas Excavation,Metal,32.252974,-95.9304625,No Outreach,12/30/1899,,,,Never Contacted,0,95,High,145,167.5
CID-EAS023,"29 FRJ Dr, Longview, TX 75602",75602,East Texas Fabrication,Metal,32.4955782,-94.6928955,No Outreach,12/30/1899,,,,Never Contacted,0,95,High,145,167.5
CID-EAS024,"4700 Old Troup Hwy, Tyler, TX 75707",75707,East Texas Sheet Metal,Metal,32.30048,-95.2640653,No Outreach,12/30/1899,,,,Never Contacted,0,95,High,145,167.5
CID-ETX025,"812 E Hubbard St, Lindale, TX 75771",75771,ETX STEEL,Metal,32.5158698,-95.3986075,No Outreach,12/30/1899,,,,Never Contacted,0,95,High,145,167.5
CID-ETX026,"10778 US Hwy 69 N, Tyler, TX 75706",75706,ETX STEEL - Tyler,Metal,32.4213845,-95.35735,No Outreach,12/30/1899,,,,Never Contacted,0,95,High,145,167.5
CID-FEM027,"520 E Broadway Ave, Gladewater, TX 75647",75647,FEMCO,Metal,32.5346045,-94.9381239,No Outreach,12/30/1899,,,,Never Contacted,0,95,High,145,167.5
CID-FIS028,"2104 Anthony Dr, Tyler, TX 75701",75701,Fissco Supply HVAC - Tyler,Metal,32.3013572,-95.3273445,No Outreach,12/30/1899,,,,Never Contacted,0,95,High,145,167.5
CID-FOR029,"5597 N County Road 103, Henderson, TX 75652",75652,Fortis Specialty Services LLC - Henderson Metal Fabrication and Welding,Metal,32.2324176,-94.8629842,No Outreach,12/30/1899,,,,Never Contacted,0,95,High,145,167.5
CID-HOO030,"2410 N Lyndon Ave, Tyler, TX 75702",75702,Hood Packaging Corporation,Metal,32.3767923,-95.2775486,No Outreach,12/30/1899,,,,Never Contacted,0,95,High,145,167.5
CID-HWY031,"17898 State Hwy 31 E, Brownsboro, TX 75756",75756,Hwy 31 Utilities & Excavation LLC,Metal,32.2976024,-95.6454011,No Outreach,12/30/1899,,,,Never Contacted,0,95,High,145,167.5
CID-IMC032,"S Superior Rd, White Oak, TX 75693",75693,IMC Metal Building,Metal,32.5098929,-94.8741665,No Outreach,12/30/1899,,,,Never Contacted,0,95,High,145,167.5
CID-INT033,"6725 US-271, Tyler, TX 75708",75708,Intol Manufacturing,Metal,32.3980575,-95.2676479,No Outreach,12/30/1899,,,,Never Contacted,0,95,High,145,167.5
CID-J&W034,"10764 US-271, Gladewater, TX 75647",75647,J&W Machine Shop,Metal,32.5715819,-94.9201883,No Outreach,12/30/1899,,,,Never Contacted,0,95,High,145,167.5
CID-KIL035,"9715 State Hwy 64, Selman City, TX 75689",75689,Kiltex Machine Shop,Metal,32.1875154,-94.9453857,No Outreach,12/30/1899,,,,Never Contacted,0,95,High,145,167.5
CID-LAK036,"1251 Bromberg St, Mineola, TX 75773",75773,Lake Country Machine,Metal,32.6517347,-95.4874929,No Outreach,12/30/1899,,,,Never Contacted,0,95,High,145,167.5
CID-LIL037,"10259 County Rd 2213, Tyler, TX 75707",75707,Lilly Machinery Inc,Metal,32.291082,-95.2414513,No Outreach,12/30/1899,,,,Never Contacted,0,95,High,145,167.5
CID-LMC038,"827 Fisher Rd, Longview, TX 75604",75604,LMC FAB,Metal,32.5023235,-94.819502,No Outreach,12/30/1899,,,,Never Contacted,0,95,High,145,167.5
CID-LON039,"1913 Brandon Dr, Tyler, TX 75703",75703,Lone Star Sheet Metal Works,Metal,32.2662131,-95.2786885,No Outreach,12/30/1899,,,,Never Contacted,0,95,High,145,167.5
CID-LON040,"1201 Cherokee Trce, White Oak, TX 75693",75693,Longview Production Associates,Metal,32.5176761,-94.8665872,No Outreach,12/30/1899,,,,Never Contacted,0,95,High,145,167.5
CID-LOT041,"11272 County Road 137, Flint, TX 75762",75762,Lott Sheet Metal,Metal,32.2055488,-95.3457937,No Outreach,12/30/1899,,,,Never Contacted,0,95,High,145,167.5
CID-LTD042,"9464 FM 2767, Tyler, TX 75705",75705,LTD Fabrication,Metal,32.3611709,-95.2465645,No Outreach,12/30/1899,,,,Never Contacted,0,95,High,145,167.5
CID-MAB043,"1430 John Carney Dr, Tyler, TX 75701",75701,MABBCO Motors,Metal,32.3325722,-95.3277334,No Outreach,12/30/1899,,,,Never Contacted,0,95,High,145,167.5
CID-MAS044,"6256 Reynolds Rd, Tyler, TX 75708",75708,Master Metallizing & Machining,Metal,32.3860459,-95.277801,No Outreach,12/30/1899,,,,Never Contacted,0,95,High,145,167.5
CID-MAY045,"7525 US Highway 271 S, Gilmer, TX 75645",75645,Mayhan Fabricators Inc,Metal,32.6251743,-94.9216905,No Outreach,12/30/1899,,,,Never Contacted,0,95,High,145,167.5
CID-MCE046,"725 Arp Dr, Troup, TX 75789",75789,McElroy Plastics,Metal,32.1506029,-95.1170691,No Outreach,12/30/1899,,,,Never Contacted,0,95,High,145,167.5
CID-MER047,"703 Gladewater St, Kilgore, TX 75662",75662,Merritt Preferred Components,Metal,32.385929,-94.8864938,No Outreach,12/30/1899,,,,Never Contacted,0,95,High,145,167.5
CID-MET048,"705 W Bradford St, Troup, TX 75789",75789,Metal Building Supplies of America,Metal,32.1460137,-95.1277345,No Outreach,12/30/1899,,,,Never Contacted,0,95,High,145,167.5
CID-MET049,"17536 State Hwy 155, Flint, TX 75762",75762,Metal Buildings ETX,Metal,32.2263535,-95.4121794,No Outreach,12/30/1899,,,,Never Contacted,0,95,High,145,167.5
CID-MET050,"18666 US Highway 69 N, Lindale, TX 75771",75771,Metal Works,Metal,32.5378861,-95.4149591,No Outreach,12/30/1899,,,,Never Contacted,0,95,High,145,167.5
CID-MET051,"13437 TX-110 S, Tyler, TX 75707",75707,MetalSmiths,Metal,32.2844862,-95.2493654,No Outreach,12/30/1899,,,,Never Contacted,0,95,High,145,167.5
CID-NEW052,"5881 FM 2767, Tyler, TX 75708",75708,New Hope Energy Fabrication,Metal,32.3580967,-95.2561494,No Outreach,12/30/1899,,,,Never Contacted,0,95,High,145,167.5
CID-OLD053,"218 S Spring Ave, Tyler, TX 75702",75702,Old Geezers Vintage Auto,Metal,32.3488278,-95.2982359,No Outreach,12/30/1899,,,,Never Contacted,0,95,High,145,167.5
CID-REG054,"10893 US-271, Tyler, TX 75708",75708,Regal Machine,Metal,32.4172587,-95.2272846,Not Interested,01/15/2026,,,,Disqualified,0,95,High,115,102.5
CID-SAC055,"10730 TX-149, Longview, TX 75603",75603,Sac Manufacturing Inc,Metal,32.3836039,-94.6511092,No Outreach,12/30/1899,,,,Never Contacted,0,95,High,145,167.5
CID-SMI056,"17794 FM3079, Chandler, TX 75758",75758,Smith-Fab Custom Steel Buildings,Metal,32.258658,-95.5624666,No Outreach,12/30/1899,,,,Never Contacted,0,95,High,145,167.5
CID-SMO057,"1800 Cherokee Trace, White Oak, TX 75693",75693,Smooth Fabrication,Metal,32.509776,-94.867609,No Outreach,12/30/1899,,,,Never Contacted,0,95,High,145,167.5
CID-SPU058,"3182 TX-124 Loop, Tyler, TX 75707",75707,Spur Machine Works Inc,Metal,32.3360584,-95.2570276,Follow-Up,12/30/1899,,,,Never Contacted,0,95,High,145,167.5
CID-STE059,"4555 N Jackson St, Jacksonville, TX 75766",75766,Stencor Company LLC,Metal,32.0140333,-95.2815794,No Outreach,12/30/1899,,,,Never Contacted,0,95,High,145,167.5
CID-SUN060,"3240 Birdwell Dr, Tyler, TX 75701",75701,SunSource,Metal,32.313046,-95.2824844,No Outreach,12/30/1899,,,,Never Contacted,0,95,High,145,167.5
CID-T&G061,"3227 US Highway 271, Tyler, TX 75708",75708,T&G Welding,Metal,32.3782868,-95.2837922,No Outreach,12/30/1899,,,,Never Contacted,0,95,High,145,167.5
CID-THE062,"624 Leach St, Kilgore, TX 75662",75662,The Gutter Guy,Metal,32.3614089,-94.8743118,No Outreach,12/30/1899,,,,Never Contacted,0,95,High,145,167.5
CID-THE063,"1209 S Main St, Lindale, TX 75771",75771,The Steel Building Guy,Metal,32.5042331,-95.40789,No Outreach,12/30/1899,,,,Never Contacted,0,95,High,145,167.5
CID-THR064,"1095 E Commerce Ave, Gladewater, TX 75647",75647,Three D Plastics,Metal,32.5275779,-94.9324007,No Outreach,12/30/1899,,,,Never Contacted,0,95,High,145,167.5
CID-TRI065,"11836 County Rd 331, Tyler, TX 75708",75708,Tri-Star Machine,Metal,32.4359118,-95.2695157,No Outreach,12/30/1899,,,,Never Contacted,0,95,High,145,167.5
CID-TSI066,"322 S Longview St, Kilgore, TX 75662",75662,TSI Fabrication,Metal,32.3859869,-94.8789557,No Outreach,12/30/1899,,,,Never Contacted,0,95,High,145,167.5
CID-TYL067,"3535 Shiloh Rd, Tyler, TX 75707",75707,"Tyler Building Systems, L.P.",Metal,32.2949157,-95.2524477,No Outreach,12/30/1899,,,,Never Contacted,0,95,High,145,167.5
CID-UP6068,"10263 US Hwy 69 N, Tyler, TX 75706",75706,Up Risen Steel Building,Metal,32.4141287,-95.353138,No Outreach,12/30/1899,,,,Never Contacted,0,95,High,145,167.5
CID-USA069,"5636 Shirley Dr, Tyler, TX 75708",75708,USA Fabrication of E Texas,Metal,32.3859914,-95.2643932,No Outreach,12/30/1899,,,,Never Contacted,0,95,High,145,167.5
CID-VME070,"3300 S Broadway Ave # 205, Tyler, TX 75701",75701,VME,Metal,32.3128009,-95.3000581,No Outreach,12/30/1899,,,,Never Contacted,0,95,High,145,167.5
CID-WAL071,"534 FM3053, Kilgore, TX 75662",75662,Walden Machine,Metal,32.425538,-94.945059,No Outreach,12/30/1899,,,,Never Contacted,0,95,High,145,167.5
CID-WEL072,"3220 FM 2767, Tyler, TX 75708",75708,Weld Worx LLC,Metal,32.3520196,-95.2645802,No Outreach,12/30/1899,,,,Never Contacted,0,95,High,145,167.5
CID-ARC073,"1134 State Hwy 64, Ben Wheeler, TX 75754",75754,Arcadian Place,Metal,32.3761965,-95.4903163,No Outreach,12/30/1899,,,,Never Contacted,0,95,High,145,167.5
CID-DE7074,"3456 Shiloh Rd, Tyler, TX 75707",75707,"De La Torre Group, Inc.",Metal,32.295615,-95.2541017,No Outreach,12/30/1899,,,,Never Contacted,0,95,High,145,167.5
CID-EAS075,"676 County Rd 37, Tyler, TX 75706",75706,East Texas Metal Buildings LLC,Metal,32.4144012,-95.2952687,No Outreach,12/30/1899,,,,Never Contacted,0,95,High,145,167.5
CID-PAN076,"211 Knowles St, Kilgore, TX 75662",75662,Panther Fabrication,Metal,32.3840965,-94.8771384,No Outreach,12/30/1899,,,,Never Contacted,0,95,High,145,167.5
CID-PRE077,"12551 County Road 282, Whitehouse, TX 75791",75791,Precision Custom Cuts,Metal,32.2692208,-95.2027048,No Outreach,12/30/1899,,,,Never Contacted,0,95,High,145,167.5
CID-RAN078,"13221 TX-364 Spur, Tyler, TX 75709",75709,Raney Appliance Service,Metal,32.3180656,-95.3873152,Disqualified,01/14/2026,,,,Never Contacted,0,95,High,145,167.5
CID-TEX079,"19267 County Rd 478, Lindale, TX 75771",75771,Texas Metal Building Services,Metal,32.5475889,-95.4792727,No Outreach,12/30/1899,,,,Never Contacted,0,95,High,145,167.5
CID-TYL080,"1111 E E Olive St, Tyler, TX 75702",75702,Tyler Steel Company,Metal,32.3629384,-95.288542,Interested (Warm),12/30/1899,,,,Never Contacted,0,95,High,145,167.5
CID-TYL081,"11721 US Hwy 69 N, Tyler, TX 75706",75706,Tyler Tool & Fastener Inc.,Metal,32.4301269,-95.3605168,No Outreach,12/30/1899,,,,Never Contacted,0,95,High,145,167.5
CID-ABL082,"12204 County Rd 1114, Tyler, TX 75709",75709,ABL Services,Fabrication,32.3093318,-95.3381473,No Outreach,12/30/1899,,,,Never Contacted,0,95,High,145,167.5
CID-CAS083,"2720 W Erwin St, Tyler, TX 75702",75702,Casting Repair Service,Metal,32.3502511,-95.330988,Disqualified,11/25/2025,51,163,05/24/2026,DISQUALIFIED,0,95,High,115,102.5
CID-MCM084,"11719 Laney Rd, Tyler, TX 75708",75708,MCM Metal Buildings,Metal,32.4334892,-95.1899072,Not interested,01/15/2026,56,8,,DISQUALIFIED,0,95,High,115,102.5
CID-REE085,"1001 W Elm St, Tyler, TX 75702",75702,Reece Plumbing,Metal,32.3498366,-95.3118232,Not interested,11/20/2025,56,158,05/19/2026,DISQUALIFIED,0,95,High,115,102.5
CID-EAG086,"17521 State Hwy 155, Flint, TX 75762",75762,Eagle Steel Buildings,Metal,32.2262171,-95.4109793,Not interested,11/11/2025,65,149,05/10/2026,DISQUALIFIED,0,95,High,115,102.5
CID-TEX087,"8089 TX-31, Tyler, TX 75705",75705,Texas Rain Pros,Gutter,32.3496968,-95.2552757,No Outreach,12/30/1899,29,-15,11/27/2025,Never Contacted,0,65,Medium,90,110
CID-BAN088,"19616 County Rd 431, Lindale, TX 75771",75771,Bankston Gutter Company,Gutter,32.553226,-95.4611741,Initial contact,01/05/2026,10,,,FOLLOW-UP REQUIRED,0.2,65,Medium,95,117.5
CID-JOH089,"11945 CR 182, bullard, texas 75757",75757,Johnston Gutter,Gutter,32.3635362,-95.4129799,No Outreach,12/30/1899,,,,FOLLOW-UP REQUIRED,0.2,65,Medium,95,117.5
CID-ALA090,"2206 Thompson Ln, Tyler, TX 75704",75704,Alan Fielding Electric,Electrician,32.3679646,-95.3596878,No Outreach,12/30/1899,,,11/28/2025,Never Contacted,0,70,Medium,95,117.5
CID-ADV091,"16678 State Hwy 155 Suite 300A, Tyler, TX 75703",75703,Advantage Roofing,Construction,32.467864,-95.414359,Interested,01/06/2026,9,-17,11/25/2025,FOLLOW-UP REQUIRED,0.2,70,Medium,100,125
CID-ASA092,"13026 Kallan Ave, Tyler, TX 75703",75703,ASAP Roofing,Construction,32.2913503,-95.3490933,Interested,12/30/2025,16,169,05/30/2026,FOLLOW-UP REQUIRED,0.2,70,Medium,100,125
CID-CAB093,"13033 State Highway 155 S, Tyler, TX 75703",75703,Cable's Roofing,Construction,32.2911893,-95.3498847,Interested,12/30/2025,16,,,FOLLOW-UP REQUIRED,0.2,70,Medium,100,125
CID-EAG094,"1521 W Erwin St, Tyler, TX 75702",75702,Eagle Electric,Electrician,32.35098,-95.3178271,Disqualified,01/08/2026,7,145,,FOLLOW-UP REQUIRED,0.2,70,Medium,100,125
CID-FAI095,"18601 US Highway 69 N, Lindale, TX 75771",75771,"Faithco Enterprises, Inc., Plumbing, HVAC, & Electric",Electrician,32.5377681,-95.4159349,Interested,01/12/2026,3,,,FOLLOW-UP REQUIRED,0.2,70,Medium,100,125
CID-FIR096,"2515 TX-323 W Loop, Tyler, TX 75701",75701,Firehouse Roofing,Construction,32.3127135,-95.2683979,Interested,01/06/2026,9,-18,11/24/2025,FOLLOW-UP REQUIRED,0.2,70,Medium,100,125
CID-GOT097,"10598 US Highway 69 N, Tyler, TX 75706",75706,Gotcha Covered Metal and Portable Buildings,Construction,32.4188551,-95.3555953,Account Won,11/17/2025,59,-20,11/22/2025,Won,1,70,Medium,120,155
CID-KEA098,"2913 Plymouth Cir, Tyler, TX 75707",75707,KEA Construction,Construction,32.3510995,-95.3087984,Interested,11/12/2025,64,-16,11/26/2025,FOLLOW-UP REQUIRED,0.2,70,Medium,100,125
CID-MIL099,"14907 Hwy 155 S, Tyler, TX 75703",75703,Miller Electric Inc,Electrician,32.2641296,-95.3786718,Initial contact,12/26/2025,20,,,FOLLOW-UP REQUIRED,0.2,70,Medium,100,125
CID-PAT100,"6352 Old Noonday Rd, Tyler, TX 75703",75703,Patriot Electric Services,Electrician,32.2797894,-95.3444904,Initial contact,12/26/2025,20,,,FOLLOW-UP REQUIRED,0.2,70,Medium,100,125
CID-SAW101,"12562 State Hwy 64, Tyler, TX 75704",75704,Sawyer Metal,Construction,32.361276,-95.3754708,Interested,11/14/2025,62,62,02/12/2026,FOLLOW-UP REQUIRED,0.2,70,Medium,100,125
CID-AVC102,"2850 S Southwest Loop 323, Tyler, TX 75701",75701,Avco Roofing,Construction,32.3179653,-95.3412561,Initial contact,01/06/2026,9,,,FOLLOW-UP REQUIRED,0.2,70,Medium,100,125
CID-C.1103,"13951 TX-364 Spur, Tyler, TX 75709",75709,C. Davis Heating And Air,Construction,32.3249867,-95.3972682,Interested,01/14/2026,1,,,FOLLOW-UP REQUIRED,0.2,70,Medium,100,125
CID-A&1104,"510 Limerick St, Tyler, TX 75703",75703,"A & J Roofinf, Construction",Construction,32.2341382,-95.3511884,Interested,11/12/2025,64,-16,11/26/2025,FOLLOW-UP REQUIRED,0.2,70,Medium,100,125
CID-A&W105,"5604 Old Bullard Rd, Tyler, TX 75703",75703,A&W Hill Roofing,Construction,32.2439355,-95.3195775,Interested,11/12/2025,64,-16,11/26/2025,FOLLOW-UP REQUIRED,0.2,70,Medium,100,125
CID-BAR106,"4295 Kinsey Dr, Tyler, TX 75703",75703,Bar None Roofing,Construction,32.3565691,-95.343873,Interested,11/12/2025,64,-16,11/26/2025,FOLLOW-UP REQUIRED,0.2,70,Medium,100,125
CID-BXC107,"3074 Spur 124, Tyler, TX 75707",75707,BXC Roofing,Construction,32.3376563,-95.2594941,Initial contact,11/13/2025,63,1,12/13/2025,FOLLOW-UP REQUIRED,0.2,70,Medium,100,125
CID-COV108,"8117 US Hwy 69 N, Tyler, TX 75706",75706,Cover 3 Roofing & Construction,Construction,32.2793672,-95.3587045,Interested,11/13/2025,63,-15,11/27/2025,FOLLOW-UP REQUIRED,0.2,70,Medium,100,125
CID-050500,"402 S Walnut St, Winnsboro, TX 75494",75494,10x Construction,Construction,32.9536953,-95.2896481,Follow-up,01/13/2026,2,,,FOLLOW-UP REQUIRED,0.2,70,Medium,100,125
CID-AFF110,"12379 County Rd 2175, Whitehouse, TX 75791",75791,Affordable Seamless Gutters,Roofing,32.2031344,-95.2059803,No Outreach,12/30/1899,,,,Never Contacted,0,65,Medium,90,110
CID-B&C111,"742 Graham St, Mineola, TX 75773",75773,B&C Seamless Gutter Systems,Gutter,32.6695738,-95.4822747,No Outreach,12/30/1899,,,,Never Contacted,0,65,Medium,90,110
CID-BER112,"6618 Ann Campbell Rd, Tyler, TX 75706",75706,Berry Bright Exteriors and Pressure Washing,Gutter,32.4322725,-95.3130645,No Outreach,12/30/1899,,,,Never Contacted,0,65,Medium,90,110
CID-CRE113,"2616 McDonald Rd, Tyler, TX 75701",75701,"Crest Exteriors, LLC",Roofing,32.3229776,-95.2670064,No Outreach,12/30/1899,,,,Never Contacted,0,65,Medium,90,110
CID-CSC114,"5615 Troup Hwy, Tyler, TX 75707",75707,CSC Seamless Gutters,Gutter,32.2889696,-95.2552222,Account Won,01/15/2026,,,,Won,1,65,Medium,115,147.5
CID-CW1115,"896 Co Rd 2336, Mineola, TX 75773",75773,CW Seamless Gutters & Roofs,Roofing,32.7246647,-95.5176695,No Outreach,12/30/1899,,,,Never Contacted,0,65,Medium,90,110
CID-EAS116,"4616 DC Dr Unit D9, Tyler, TX 75701",75701,East Texas Gutter Systems,Gutter,32.2982802,-95.3251596,Interested (Warm),12/30/1899,,,,Never Contacted,0,65,Medium,90,110
CID-ETX117,"15157 FM 848, Whitehouse, TX 75791",75791,ETX Services,Gutter,32.259047,-95.1967402,No Outreach,12/30/1899,,,,Never Contacted,0,65,Medium,90,110
CID-EVE118,"121 S Broadway Ave Suite 618, Tyler, TX 75702",75702,Evergreen Roofing & Solar,Roofing,32.3500725,-95.3010626,No Outreach,12/30/1899,,,,Never Contacted,0,65,Medium,90,110
CID-JAC119,"434 E Loop 281 Suite 200 G, Longview, TX 75605",75605,Jacksonville Custom Gutters,Gutter,32.5405932,-94.733977,No Outreach,12/30/1899,,,,Never Contacted,0,65,Medium,90,110
CID-MAX120,"436 Southgate Ave, Tyler, TX 75702",75702,Max Handyman Services LLC,Roofing,32.3451648,-95.3325454,No Outreach,12/30/1899,,,,Never Contacted,0,65,Medium,90,110
CID-QUA121,"9335 Chisholm Trail, Tyler, TX 75703",75703,Quality Seamless Gutters,Gutter,32.2495433,-95.2913799,No Outreach,12/30/1899,,,,Never Contacted,0,65,Medium,90,110
CID-RAM122,"2306 W Shaw St, Tyler, TX 75701",75701,Ramos Roofing & Remodeling Services,Roofing,32.3365088,-95.3272981,No Outreach,12/30/1899,,,,Never Contacted,0,65,Medium,90,110
CID-RD1123,"11258 County Rd 492, Tyler, TX 75706",75706,"RD Roofing, Gutters & Tree Services",Roofing,32.4348317,-95.3515162,No Outreach,12/30/1899,,,,Never Contacted,0,65,Medium,90,110
CID-REF124,"240 S SW Loop 323 Suite B, Tyler, TX 75701",75701,Referred Roofing and Construction,Roofing,32.3497285,-95.3427534,No Outreach,12/30/1899,,,,Never Contacted,0,65,Medium,90,110
CID-RON125,"924 W Houston St, Tyler, TX 75702",75702,Ronin Gutter Co,Gutter,32.3435239,-95.3114145,No Outreach,12/30/1899,,,,Never Contacted,0,65,Medium,90,110
CID-SA1126,"4529 County Rd 149, Flint, TX 75762",75762,S and S Gutter Services,Gutter,32.1872096,-95.3262014,No Outreach,12/30/1899,,,,Never Contacted,0,65,Medium,90,110
CID-SGS127,"Private Address in Berryville, Texas",75762,SGS Gutters,Gutter,32.0884931,-95.4719003,No Outreach,12/30/1899,,,,Never Contacted,0,65,Medium,90,110
CID-TEX128,"180 Lake Harris Cir, White Oak, TX 75693",75693,Texas Gutter Pros,Gutter,32.5139389,-94.8350021,No Outreach,12/30/1899,,,,Never Contacted,0,65,Medium,90,110
CID-WIL129,"2700 Meadowlark Ln, Tyler, TX 75701",75701,Wilder's Seamless Gutters LLC,Gutter,32.323733,-95.2655872,No Outreach,12/30/1899,,,,Never Contacted,0,65,Medium,90,110
CID-WRI130,"10633 FM 2710, Lindale, TX 75771",75771,Wright's Gutter Company,Gutter,32.5535023,-95.3385218,No Outreach,12/30/1899,,,,Never Contacted,0,65,Medium,90,110
CID-YOS131,"13739 State Hwy 155, Tyler, TX 75703",75703,Yosemite Roofing Tyler TX,Roofing,32.2814316,-95.3588719,No Outreach,12/30/1899,,,,Never Contacted,0,65,Medium,90,110
CID-CUS132,"12907 State Hwy 155 Suite B, Tyler, TX 75703",75703,Custom Metal Roofing,Roofing,32.293801,-95.3481028,No Outreach,12/30/1899,,,,Never Contacted,0,65,Medium,90,110
CID-EA1133,"11171 County Rd 2298, Tyler, TX 75707",75707,EA Roofing and Restoration Contractors,Roofing,32.316635,-95.1474171,No Outreach,12/30/1899,,,,Never Contacted,0,65,Medium,90,110
CID-GRE134,"12907 State Hwy 155, Tyler, TX 75703",75703,Greenway Gutter Pros,Gutter,32.293801,-95.3481028,No Outreach,12/30/1899,,,,Never Contacted,0,65,Medium,90,110
CID-GUT135,"7868 Pearl St, Tyler, TX 75708",75708,Gutterworks Gutter Cleaning Service,Gutter,32.3727574,-95.2519163,Initial Contact,12/30/1899,,,,Never Contacted,0,65,Medium,90,110
CID-TYR136,"18687 CR 4116, Lindale, Texas 75771",75771,Tyrone Townsend,Construction,32.3635362,-95.4129799,Account Won,01/12/2026,,,,Won,1,70,Medium,120,155
CID-BEN137,"16451 County Rd 196, Tyler, TX 75703",75703,Benco Construction,Construction,32.2409219,-95.4065204,No Outreach,12/30/1899,,,,Never Contacted,0,70,Medium,95,117.5
CID-AIM138,"15385 TX-110, Whitehouse, TX 75791",75791,AIM Roofing,Construction,32.256107,-95.2369048,No Outreach,12/30/1899,,,,Never Contacted,0,70,Medium,95,117.5
CID-ADM139,"2540 County Road 376, Tyler, TX 75708",75708,Admire Roofing,Construction,32.3775075,-95.2717602,No Outreach,12/30/1899,,,,Never Contacted,0,70,Medium,95,117.5
CID-APA140,"905 TX-110 N, Whitehouse, TX 75791",75791,"Apache Construction, Inc.",Construction,32.2404116,-95.2306643,No Outreach,12/30/1899,,,,Never Contacted,0,70,Medium,95,117.5
CID-BYN141,"204 Shady Ln, Whitehouse, TX 75791",75791,Bynum Plumbing,Construction,32.229558,-95.2086775,No Outreach,12/30/1899,,,,Never Contacted,0,70,Medium,95,117.5
CID-DYN142,"719-745 TX-31 Suite 173, Tyler, TX 75702",75702,Dynamic Electricians,Electrician,32.3470336,-95.3083724,No Outreach,12/30/1899,,,,Never Contacted,0,70,Medium,95,117.5
CID-ETX143,"226 Progress Blvd, Longview, TX 75604",75604,ETX Tree Clearing & Dirt Work,Construction,32.5049033,-94.8293295,No Outreach,12/30/1899,,,,Never Contacted,0,70,Medium,95,117.5
CID-FEN144,"2308 Glenview Ave, Tyler, TX 75701",75701,Fenix Electric ETX,Electrician,32.3248024,-95.2510746,No Outreach,12/30/1899,,,,Never Contacted,0,70,Medium,95,117.5
CID-GOO145,"14540 FM 2964, Whitehouse, TX 75791",75791,"Goodfella's Roofing & Construction, Inc.",Construction,32.2683165,-95.2583701,No Outreach,12/30/1899,,,,Never Contacted,0,70,Medium,95,117.5
CID-K&1146,"4134 Chandler Hwy, Tyler, TX 75702",75702,"K & L Recycling, LLC",Construction,32.3435648,-95.3461935,No Outreach,12/30/1899,,,,Never Contacted,0,70,Medium,95,117.5
CID-MIK147,"3014 TX-323 Loop, Tyler, TX 75701",75701,Mikasa Construction,Construction,32.3035015,-95.3083565,No Outreach,12/30/1899,,,,Never Contacted,0,70,Medium,95,117.5
CID-OME148,"1602 W Houston St, Tyler, TX 75702",75702,Omega Custom Fabrication LLC,Construction,32.3433114,-95.318199,No Outreach,12/30/1899,,,,Never Contacted,0,70,Medium,95,117.5
CID-ROT149,"12319 County Road 1114, Tyler, TX 75709",75709,Roto-Rooter Plumbing & Drain Services,Construction,32.3027282,-95.3453352,No Outreach,12/30/1899,,,,Never Contacted,0,70,Medium,95,117.5
CID-WRE150,"13250 FM3039, Crandall, TX 75114",75114,"WreckHouse Demolition, LLC",Construction,32.6198998,-96.4615386,No Outreach,12/30/1899,,,,Never Contacted,0,70,Medium,95,117.5
CID-BSH151,"5380 Old Bullard Rd #600, Tyler, TX 75703",75703,BSH Electrical,Electrician,32.2907632,-95.3054938,No Outreach,12/30/1899,,,,Never Contacted,0,70,Medium,95,117.5
CID-AP1152,"116 Leisure Ln, Whitehouse, TX 75791",75791,A Plus Plumbing,Construction,32.2099877,-95.2154959,No Outreach,12/30/1899,,,,Never Contacted,0,70,Medium,95,117.5
CID-A-11153,"814 Jack Brown, Whitehouse, TX 75791",75791,A-10 construction & Land Improvement,Construction,32.2162643,-95.2122961,No Outreach,12/30/1899,,,,Never Contacted,0,70,Medium,95,117.5
CID-A-Z154,"15632 TX-110, Whitehouse, TX 75791",75791,A-Z Roofing,Construction,32.2525081,-95.237349,No Outreach,12/30/1899,,,,Never Contacted,0,70,Medium,95,117.5
CID-A11001,"5117 Atlanta Ave, Tyler, TX 75703",75703,A1 Quality Roofing,Construction,32.292754,-95.3018318,No Outreach,12/30/1899,,,,Never Contacted,0,70,Medium,95,117.5
CID-ABC156,"1802 Shiloh Rd, Tyler, TX 75703",75703,ABCO Roofing & Siding,Construction,32.2955021,-95.2806672,No Outreach,12/30/1899,,,,Never Contacted,0,70,Medium,95,117.5
CID-ADK157,"3115 San Jacinto Dr, Tyler, TX 75701",75701,Adkins Electric Inc,Electrician,32.3143785,-95.320137,No Outreach,12/30/1899,,,,Never Contacted,0,70,Medium,95,117.5
CID-AME158,"6200 Troup Hwy, Tyler, TX 75707",75707,American Standard Inc,Construction,32.2902811,-95.2534269,No Outreach,12/30/1899,,,,Never Contacted,0,70,Medium,95,117.5
CID-ANZ159,"2000 Broussard Street, Tyler, TX 75701",75701,Anzak Inc,Electrician,32.3001799,-95.3254164,No Outreach,12/30/1899,,,,Never Contacted,0,70,Medium,95,117.5
CID-AP1160,"3362 TX-323 S Loop, Tyler, TX 75701",75701,AP Roofing,Construction,32.3101235,-95.3389027,No Outreach,12/30/1899,,,,Never Contacted,0,70,Medium,95,117.5
CID-AUT161,"1600 S Boldt Ave, Tyler, TX 75701",75701,AUTOMATIC GATES SERVICE REPAIRS AND MAINTENANCE,Construction,32.3319583,-95.2702191,No Outreach,12/30/1899,,,,Never Contacted,0,70,Medium,95,117.5
CID-BAD162,"517 S Chilton Ave, Tyler, TX 75702",75702,Bad Storm Roofing and Restoration,Construction,32.3445125,-95.3049851,No Outreach,12/30/1899,,,,Never Contacted,0,70,Medium,95,117.5
CID-BAL163,"46376 US Highway 69 N, Bullard, TX 75757",75757,Ballew Plumbing,Construction,32.1484983,-95.3139814,No Outreach,12/30/1899,,,,Never Contacted,0,70,Medium,95,117.5
CID-BEN164,"16024 TX-31, Tyler, TX 75709",75709,Benny Swan Electrical Services,Electrician,32.3235254,-95.4364725,No Outreach,12/30/1899,,,,Never Contacted,0,70,Medium,95,117.5
CID-BIS165,"11484 FM 2868, Flint, TX 75762",75762,Bison Construction Pros,Construction,32.2028435,-95.3599436,No Outreach,12/30/1899,,,,Never Contacted,0,70,Medium,95,117.5
CID-BLU166,"6723 Highlands Ct, Tyler, TX 75703",75703,Blue Rose Roofing,Construction,32.274411,-95.3423202,No Outreach,12/30/1899,,,,Never Contacted,0,70,Medium,95,117.5
CID-BRE167,"102 N College Ave Suite #610, Tyler, TX 75702",75702,"Brexan, LLC",Construction,32.3509055,-95.301837,No Outreach,12/30/1899,,,,Never Contacted,0,70,Medium,95,117.5
CID-CAM168,"2606 Old Gladewater Hwy, Tyler, TX 75702",75702,Camilo's Remodeling Company,Construction,32.3764839,-95.2811711,No Outreach,12/30/1899,,,,Never Contacted,0,70,Medium,95,117.5
CID-COL169,"112 E Line St, Tyler, TX 75702",75702,"Collin Bryan Construction & Roofing, LLC",Construction,32.3541824,-95.2999184,No Outreach,12/30/1899,,,,Never Contacted,0,70,Medium,95,117.5
CID-COR170,"2424 Oak Ln, Tyler, TX 75701",75701,Core Construction,Construction,32.323635,-95.3079349,No Outreach,12/30/1899,,,,Never Contacted,0,70,Medium,95,117.5
CID-COY171,"3047 E 5th St, Tyler, TX 75701",75701,"Coy Dodd Air Conditioning, Inc.",Construction,32.3322395,-95.25891,No Outreach,12/30/1899,,,,Never Contacted,0,70,Medium,95,117.5
CID-COY172,"3900 S Cameron Ave, Tyler, TX 75701",75701,Coyote Roofing,Construction,32.3053275,-95.2863254,No Outreach,12/30/1899,,,,Never Contacted,0,70,Medium,95,117.5
CID-D&S173,"726 W Elm St, Tyler, TX 75702",75702,"D&S Electric Services, Inc.",Electrician,32.3492845,-95.3086009,No Outreach,12/30/1899,,,,Never Contacted,0,70,Medium,95,117.5
CID-DAM174,"14225 State Hwy 155, Tyler, TX 75703",75703,Damron A/C & Heating,Construction,32.2743346,-95.3697479,No Outreach,12/30/1899,,,,Never Contacted,0,70,Medium,95,117.5
CID-DAV175,"9177 County Rd 2192 Unit 1E, Whitehouse, TX 75791",75791,"Davidson Electrical Services, LLC",Electrician,32.238809,-95.2523476,No Outreach,12/30/1899,,,,Never Contacted,0,70,Medium,95,117.5
CID-DB1176,"13745 County Rd 26, Tyler, TX 75707",75707,Db Excavation Inc,Construction,32.343935,-95.180379,No Outreach,12/30/1899,,,,Never Contacted,0,70,Medium,95,117.5
CID-DEA177,"316 S Palace Ave, Tyler, TX 75702",75702,Dealers Electrical Supply,Electrician,32.3477178,-95.309842,No Outreach,12/30/1899,,,,Never Contacted,0,70,Medium,95,117.5
CID-DIC178,"US-69, Tyler, TX 75703",75703,Dickson Roofing,Construction,32.2330195,-95.3116922,No Outreach,12/30/1899,,,,Never Contacted,0,70,Medium,95,117.5
CID-DOL179,"10839 County Rd 1223, Tyler, TX 75709",75709,Dollar ConcreteLLC,Construction,32.3247664,-95.4445632,No Outreach,12/30/1899,,,,Never Contacted,0,70,Medium,95,117.5
CID-EAS180,"11125 County Road 168, Tyler, TX 75703",75703,East Texas Elite Exteriors,Construction,32.2341382,-95.3511884,No Outreach,12/30/1899,,,,Never Contacted,0,70,Medium,95,117.5
CID-ED1181,"1012 Meadow Ln, Tyler, TX 75702",75702,Ed Thompson Construction,Construction,32.3605339,-95.3173778,No Outreach,12/30/1899,,,,Never Contacted,0,70,Medium,95,117.5
CID-EDI182,"3800 Paluxy Dr Ste 105, Tyler, TX 75703",75703,Edison Electricians of Tyler,Electrician,32.3066915,-95.2779527,No Outreach,12/30/1899,,,,Never Contacted,0,70,Medium,95,117.5
CID-EL1183,"12441 FM 2767, Tyler, TX 75708",75708,El Sol Roofing,Construction,32.3667922,-95.1987366,No Outreach,12/30/1899,,,,Never Contacted,0,70,Medium,95,117.5
CID-ELE184,"119 Mockingbird Ln, Tyler, TX 75701",75701,Electrical Contractors Tyler,Electrician,32.3361298,-95.3016011,No Outreach,12/30/1899,,,,Never Contacted,0,70,Medium,95,117.5
CID-ELE185,"4520 Red Raider Rd, Tyler, TX 75703",75703,Electricians Company,Electrician,32.3015367,-95.298656,No Outreach,12/30/1899,,,,Never Contacted,0,70,Medium,95,117.5
CID-ETX186,"14168 County Rd 365, Winona, TX 75792",75792,ETX Concrete Works,Construction,32.4666348,-95.1213734,No Outreach,12/30/1899,,,,Never Contacted,0,70,Medium,95,117.5
CID-FAR187,"3312 TX-323 S Loop, Tyler, TX 75701",75701,Farmer's Roofing and Construction,Construction,32.310586,-95.3399257,No Outreach,12/30/1899,,,,Never Contacted,0,70,Medium,95,117.5
CID-FPO188,"241 TX-31, Chandler, TX 75758",75758,FPO Plumbing and Heating,Construction,32.3085049,-95.477632,No Outreach,12/30/1899,,,,Never Contacted,0,70,Medium,95,117.5
CID-FRI189,"14394 FM 2868, Flint, TX 75762",75762,Fritcher Construction Services,Construction,32.2207319,-95.4077748,No Outreach,12/30/1899,,,,Never Contacted,0,70,Medium,95,117.5
CID-FUL190,"11882 FM 3226, Arp, TX 75750",75750,Full Moon Plumbing,Construction,32.305564,-95.1336728,No Outreach,12/30/1899,,,,Never Contacted,0,70,Medium,95,117.5
CID-GAM191,"224 Mike Ave, Tyler, TX 75702",75702,Gamez Roofing & More,Construction,32.3483371,-95.3249425,No Outreach,12/30/1899,,,,Never Contacted,0,70,Medium,95,117.5
CID-GDC192,"5409 FM 2767, Tyler, TX 75708",75708,GDC Industrial Inc,Construction,32.3564103,-95.2566715,No Outreach,12/30/1899,,,,Never Contacted,0,70,Medium,95,117.5
CID-GEN193,"1125 TX-110, Whitehouse, TX 75791",75791,General Roofing & Restoration,Construction,32.245,-95.2336788,No Outreach,12/30/1899,,,,Never Contacted,0,70,Medium,95,117.5
CID-GOO194,"17320 Old Bullard Rd, Tyler, TX 75703",75703,Good Choice Roofing and Renovations,Construction,32.2277718,-95.3069424,No Outreach,12/30/1899,,,,Never Contacted,0,70,Medium,95,117.5
CID-HAM195,"701 W Elm St, Tyler, TX 75702",75702,Hamilton Supply Co,Construction,32.3498799,-95.3078488,No Outreach,12/30/1899,,,,Never Contacted,0,70,Medium,95,117.5
CID-HAR196,"5755 Eagles Nest Blvd, Tyler, TX 75703",75703,Hargrove Roofing,Construction,32.2864615,-95.2798875,No Outreach,12/30/1899,,,,Never Contacted,0,70,Medium,95,117.5
CID-HER197,"303 S Glenwood Blvd, Tyler, TX 75702",75702,Hernandez roofing,Construction,32.3480373,-95.3175484,No Outreach,12/30/1899,,,,Never Contacted,0,70,Medium,95,117.5
CID-HIL198,"10226 TX-31, Tyler, TX 75705",75705,Hillard Homes LLC,Construction,32.3497177,-95.2407471,No Outreach,12/30/1899,,,,Never Contacted,0,70,Medium,95,117.5
CID-HVA199,"13889 County Road 426, Lindale, TX 75771",75771,HVAC Systems of Texas,Construction,32.4719395,-95.5741796,No Outreach,12/30/1899,,,,Never Contacted,0,70,Medium,95,117.5
CID-IND200,"1800 Shiloh Rd, Tyler, TX 75703",75703,Indemnity Roofing Inc,Construction,32.2955329,-95.2806931,No Outreach,12/30/1899,,,,Never Contacted,0,70,Medium,95,117.5
CID-INT201,"11490 FM 2868, Flint, TX 75762",75762,"Integrity Electric & Solar, LLC",Electrician,32.2031757,-95.3600314,No Outreach,12/30/1899,,,,Never Contacted,0,70,Medium,95,117.5
CID-JAC202,"1700 TX-323 S Loop, Tyler, TX 75701",75701,Jacobe Brothers,Construction,32.3308695,-95.26511,No Outreach,12/30/1899,,,,Never Contacted,0,70,Medium,95,117.5
CID-JLS203,"11002 FM2661, Tyler, TX 75704",75704,JLS Enterprises Electrical Services,Electrician,32.3235083,-95.4401416,No Outreach,12/30/1899,,,,Never Contacted,0,70,Medium,95,117.5
CID-JM2204,"3127 Andy Ln, Tyler, TX 75701",75701,JM Classic Roofing,Construction,32.3139408,-95.2641686,No Outreach,12/30/1899,,,,Never Contacted,0,70,Medium,95,117.5
CID-JOH205,"3230 G E Dr, Tyler, TX 75701",75701,"John Spiller Heating & Air Conditioning, LLC",Construction,32.3119853,-95.2678866,No Outreach,12/30/1899,,,,Never Contacted,0,70,Medium,95,117.5
CID-KEE206,"217 TX-110 S, Whitehouse, TX 75791",75791,Kee Electric Co,Electrician,32.2239534,-95.2252772,No Outreach,12/30/1899,,,,Never Contacted,0,70,Medium,95,117.5
CID-LA2207,"16720 State Hwy 155 Suite. 1008, Tyler, TX 75703",75703,L and N Excavating LLC,Construction,32.2383804,-95.4043464,No Outreach,12/30/1899,,,,Never Contacted,0,70,Medium,95,117.5
CID-LEV208,"13365 County Rd 2299, Arp, TX 75750",75750,"Level-Up Excavation & Land Management, LLC",Construction,32.2812596,-95.0380984,No Outreach,12/30/1899,,,,Never Contacted,0,70,Medium,95,117.5
CID-LON209,"Private Address in Flint, Texas",75777,Lone Star Building Systems LLC,Construction,32.2040437,-95.3485635,No Outreach,12/30/1899,,,,Never Contacted,0,70,Medium,95,117.5
CID-LON210,"6003 Old Bullard Rd # 224, Tyler, TX 75703",75703,Lone Star Electricians,Electrician,32.2834955,-95.3081144,No Outreach,12/30/1899,,,,Never Contacted,0,70,Medium,95,117.5
CID-LON211,"2724 E Commerce St, Tyler, TX 75708",75708,Lone Star Exteriors,Construction,32.3569258,-95.2667946,Initial Contact,12/30/1899,,,,Never Contacted,0,70,Medium,95,117.5
CID-LON212,"17867 County Rd 498, Lindale, TX 75771",75771,Longhorn Electrical TX LLC,Electrician,32.5280121,-95.3694526,No Outreach,12/30/1899,,,,Never Contacted,0,70,Medium,95,117.5
CID-LOV213,"3128 TX-124 Loop, Tyler, TX 75707",75707,Love Electric Inc,Electrician,32.3359057,-95.2570329,No Outreach,12/30/1899,,,,Never Contacted,0,70,Medium,95,117.5
CID-MOD214,"16075 Old Jacksonville Hwy, Tyler, TX 75703",75703,Modern Roofing & Restoration,Construction,32.2464477,-95.3480147,Interested (Warm),01/15/2026,,,,FOLLOW-UP REQUIRED,0.2,70,Medium,100,125
CID-MON215,"13917 Hwy 155 South, Tyler, TX 75703",75703,Montrose Concrete Inc,Construction,32.2736243,-95.3715259,No Outreach,12/30/1899,,,,Never Contacted,0,70,Medium,95,117.5
CID-MOO216,"1205 S Bennett Ave, Tyler, TX 75701",75701,Moody & Phillips Electric Company,Construction,32.3355771,-95.3372809,No Outreach,12/30/1899,,,,Never Contacted,0,70,Medium,95,117.5
CID-MOR217,"102 N College Ave, Tyler, TX 75702",75702,Morris Roofing and Construction,Construction,32.3509217,-95.3018785,No Outreach,12/30/1899,,,,Never Contacted,0,70,Medium,95,117.5
CID-NEW218,"23402 County Road 121, Bullard, TX 75757",75757,Newburn Appliance Services,Construction,32.1354331,-95.2801579,No Outreach,12/30/1899,,,,Never Contacted,0,70,Medium,95,117.5
CID-POO219,"1111 E Olive St, Tyler, TX 75702",75702,Poole Construction Services LLC,Construction,32.3629384,-95.288542,No Outreach,12/30/1899,,,,Never Contacted,0,70,Medium,95,117.5
CID-POS220,"1950 Stonegate Circle, Tyler, TX 75703",75703,"Post Oak Roofing, LLC",Construction,32.2884137,-95.2723624,No Outreach,12/30/1899,,,,Never Contacted,0,70,Medium,95,117.5
CID-PRI221,"2702 E 5th St #745, Tyler, TX 75701",75701,Prime Electric,Electrician,32.3335242,-95.2657331,No Outreach,12/30/1899,,,,Never Contacted,0,70,Medium,95,117.5
CID-PRI222,"Private Address in Bullard, Texas",75710,PrimeTime Plumbing,Construction,32.1398804,-95.320229,No Outreach,12/30/1899,,,,Never Contacted,0,70,Medium,95,117.5
CID-PRO223,"719 W Front St #69, Tyler, TX 75702",75702,Proton Electric,Electrician,32.3470812,-95.3083903,No Outreach,12/30/1899,,,,Never Contacted,0,70,Medium,95,117.5
CID-PYR224,"101 County Road 1215, Flint, TX 75762",75762,Pyramid Homes | Home Builders Tyler TX,Construction,32.1978798,-95.3210866,No Outreach,12/30/1899,,,,Never Contacted,0,70,Medium,95,117.5
CID-RAM225,"10760 FM 850, Tyler, TX 75705",75705,Ramos Roofing and Remodling,Construction,32.3548609,-95.2325722,No Outreach,12/30/1899,,,,Never Contacted,0,70,Medium,95,117.5
CID-RB2226,"12927 Yancy Ln, Tyler, TX 75707",75707,RB Roofing,Construction,32.2899613,-95.1479277,No Outreach,12/30/1899,,,,Never Contacted,0,70,Medium,95,117.5
CID-RED227,"2301 S Broadway Ave, Tyler, TX 75701",75701,Redline Roofing Company,Construction,32.3239638,-95.3014293,No Outreach,12/30/1899,,,,Never Contacted,0,70,Medium,95,117.5
CID-RED228,"3101 State Highway 31 E, Tyler, TX 75702",75702,redwood construction&remodeling LLC,Construction,32.3447571,-95.2602819,No Outreach,12/30/1899,,,,Never Contacted,0,70,Medium,95,117.5
CID-REG229,"3318 Timberlane Dr, Tyler, TX 75701",75701,Regal Roofing,Construction,32.3237855,-95.2544886,No Outreach,12/30/1899,,,,Never Contacted,0,70,Medium,95,117.5
CID-RIL230,"720 Vz County Rd 1311, Canton, TX 75103",75103,Riley Dirt Service,Construction,32.5384241,-95.7000912,No Outreach,12/30/1899,,,,Never Contacted,0,70,Medium,95,117.5
CID-RLM231,"1419 Lamar St, Tyler, TX 75701",75701,RLM General Contractors Tyler,Construction,32.3232514,-95.2845941,No Outreach,12/30/1899,,,,Never Contacted,0,70,Medium,95,117.5
CID-ROO232,"2100 W Shaw St, Tyler, TX 75701",75701,Roofing Contractors Tyler,Construction,32.3367083,-95.3240476,No Outreach,12/30/1899,,,,Never Contacted,0,70,Medium,95,117.5
CID-ROO233,"4028 Stonebridge Dr, Tyler, TX 75707",75707,Roofing Tyler TX,Construction,32.3039801,-95.2355541,No Outreach,12/30/1899,,,,Never Contacted,0,70,Medium,95,117.5
CID-ROS234,"625 W Dobbs St, Tyler, TX 75701",75701,Rosley Homes,Construction,32.3394841,-95.307606,No Outreach,12/30/1899,,,,Never Contacted,0,70,Medium,95,117.5
CID-SCA235,"9395 FM 2767, Tyler, TX 75708",75708,Scandrill Inc,Construction,32.3619622,-95.2467269,No Outreach,12/30/1899,,,,Never Contacted,0,70,Medium,95,117.5
CID-SID236,"120 W 5th St, Tyler, TX 75701",75701,SIDAR Builders LLC,Construction,32.3303656,-95.3019164,No Outreach,12/30/1899,,,,Never Contacted,0,70,Medium,95,117.5
CID-SOU237,"10278 County Road 489, Tyler, TX 75706",75706,"Southern Roots Steel Erectors, Inc.",Construction,32.4153719,-95.3371242,No Outreach,12/30/1899,,,,Never Contacted,0,70,Medium,95,117.5
CID-STE238,"401 Troup Hwy, Tyler, TX 75701",75701,Stewart's Donnybrook Automotive,Electrician,32.3255605,-95.2971055,No Outreach,12/30/1899,,,,Never Contacted,0,70,Medium,95,117.5
CID-TEX239,"121 S Broadway Ave, Tyler, TX 75702",75702,Texas Direct Roofing & Construction,Construction,32.3500726,-95.3010624,No Outreach,12/30/1899,,,,Never Contacted,0,70,Medium,95,117.5
CID-TEX240,"3815 Timms St # 106, Tyler, TX 75701",75701,Texas Electric Inc,Electrician,32.3064312,-95.3310239,No Outreach,12/30/1899,,,,Never Contacted,0,70,Medium,95,117.5
CID-TEX241,"13053 County Rd 411, Tyler, TX 75706",75706,Texas Electrical And Construction Solutions,Electrician,32.4566307,-95.4340418,No Outreach,12/30/1899,,,,Never Contacted,0,70,Medium,95,117.5
CID-THE242,"5117 Steel Rd, Tyler, TX 75703",75703,Thedford Construction Co Inc,Construction,32.2926233,-95.328387,No Outreach,12/30/1899,,,,Never Contacted,0,70,Medium,95,117.5
CID-THO243,"I 20 Frontage Rd, Lindale, TX 75706",75706,"Thomson's Plumbing, Co.",Construction,32.6977594,-96.4646036,No Outreach,12/30/1899,,,,Never Contacted,0,70,Medium,95,117.5
CID-TRU244,"604 Quail Ln, Whitehouse, TX 75791",75791,True Line Fencing & Construction,Construction,32.2177323,-95.2481066,No Outreach,12/30/1899,,,,Never Contacted,0,70,Medium,95,117.5
CID-TUR245,"20189 County Rd 4106, Lindale, TX 75771",75771,"Turner Steel Buildings, Inc",Construction,32.5604932,-95.3554625,No Outreach,12/30/1899,,,,Never Contacted,0,70,Medium,95,117.5
CID-TYL246,"7922 S Broadway Ave, Tyler, TX 75703",75703,Tyler Roofing Company,Construction,32.2601666,-95.3060031,No Outreach,12/30/1899,,,,Never Contacted,0,70,Medium,95,117.5
CID-UNI247,"1937 Brandon Dr, Tyler, TX 75703",75703,Universal Air Conditioning Experts,Construction,32.2661558,-95.2780586,No Outreach,12/30/1899,,,,Never Contacted,0,70,Medium,95,117.5
CID-UPT248,"227 Tournament Rd, Tyler, TX 75702",75702,Uptown Refrigeration-Appliance Rpr,Construction,32.3487721,-95.3387855,No Outreach,12/30/1899,,,,Never Contacted,0,70,Medium,95,117.5
CID-VAL249,"13206 FM 3271, Tyler, TX 75704",75704,Valdez Building Systems,Construction,32.4148556,-95.3856811,No Outreach,12/30/1899,,,,Never Contacted,0,70,Medium,95,117.5
CID-VEL250,"4202 Republic Dr, Tyler, TX 75701",75701,Velocity Mechanical Inc,Construction,32.3050025,-95.3277647,No Outreach,12/30/1899,,,,Never Contacted,0,70,Medium,95,117.5
CID-VET251,"302 S Broadway Ave, Tyler, TX 75702",75702,Veterans Roofing of East Texas,Construction,32.3479088,-95.3000046,No Outreach,12/30/1899,,,,Never Contacted,0,70,Medium,95,117.5
CID-WEA252,"9464 FM 2767, Tyler, TX 75708",75708,Weatherford,Construction,32.3611709,-95.2465645,No Outreach,12/30/1899,,,,Never Contacted,0,70,Medium,95,117.5
CID-WIN253,"705 S Southeast Loop 323, Tyler, TX 75702",75702,Winn Tile,Construction,32.3432512,-95.2678155,No Outreach,12/30/1899,,,,Never Contacted,0,70,Medium,95,117.5
CID-903903254,"13872 FM 14, Tyler, TX 75706",75706,903 HVAC,Construction,32.4659231,-95.2831766,No Outreach,12/30/1899,,,,Never Contacted,0,70,Medium,95,117.5
CID-ALL255,"Tyler, TX 75701",75701,All-N-One Remodeling,Construction,32.3243856,-95.2997959,No Outreach,12/30/1899,,,,Never Contacted,0,70,Medium,95,117.5
CID-AME256,"13311 State Highway 64 E, Tyler, TX 75707",75707,Americo Metal Buildings,Construction,32.310654,-95.1869834,No Outreach,12/30/1899,,,,Never Contacted,0,70,Medium,95,117.5
CID-CAN257,"719 W Front St, Tyler, TX 75702",75702,"Cantrell Roofing, LLC",Construction,32.3471871,-95.3083824,No Outreach,12/30/1899,,,,Never Contacted,0,70,Medium,95,117.5
CID-CLE258,"19471 Ste. B, US-69, Lindale, TX 75771",75771,Clear Grade Excavation LLC.,Construction,32.4964885,-95.4033449,No Outreach,12/30/1899,,,,Never Contacted,0,70,Medium,95,117.5
CID-FAI259,"5380 Old Bullard Rd, Tyler, TX 75703",75703,FairClaims Roofing & Construction,Construction,32.2908037,-95.3054722,No Outreach,12/30/1899,,,,Never Contacted,0,70,Medium,95,117.5
CID-FIN260,"3092 TX-323 Loop, Tyler, TX 75701",75701,Finch Construction,Construction,32.3035015,-95.3083565,No Outreach,12/30/1899,,,,Never Contacted,0,70,Medium,95,117.5
CID-GOO261,"720 Oxford Cir, Tyler, TX 75703",75703,Goodson Mechanical,Construction,32.2694447,-95.2973362,No Outreach,12/30/1899,,,,Never Contacted,0,70,Medium,95,117.5
CID-JAC262,"700 TX-323 S Loop, Tyler, TX 75702",75702,Jacobe Brothers Construction,Construction,32.3594052,-95.3437877,No Outreach,12/30/1899,,,,Never Contacted,0,70,Medium,95,117.5
CID-JNO263,"16321 FM 344 Suite 7, Bullard, TX 75757",75757,JNOVCO,Construction,32.1620873,-95.4269717,No Outreach,12/30/1899,,,,Never Contacted,0,70,Medium,95,117.5
CID-KBR264,"323 E Mims St, Tyler, TX 75702",75702,KBR Inc,Construction,32.3718503,-95.2973278,No Outreach,12/30/1899,,,,Never Contacted,0,70,Medium,95,117.5
CID-MAD265,"125 S Bonner Ave, Tyler, TX 75702",75702,Maddox Residential & Commercial Services,Electrician,32.3499554,-95.3059643,No Outreach,12/30/1899,,,,Never Contacted,0,70,Medium,95,117.5
CID-PRO266,"15230 TX-110, Whitehouse, TX 75791",75791,Project One Roofing,Construction,32.2579979,-95.2392711,No Outreach,12/30/1899,,,,Never Contacted,0,70,Medium,95,117.5
CID-RIL267,"12245 County Rd 289, Tyler, TX 75707",75707,Riley Harris Construction,Construction,32.2998185,-95.1720456,No Outreach,12/30/1899,,,,Never Contacted,0,70,Medium,95,117.5
CID-ROO268,"12654 Old Noonday Rd, Tyler, TX 75703",75703,"Roofmaster Maintenance & Roofing, Inc.",Construction,32.29798,-95.3388137,No Outreach,12/30/1899,,,,Never Contacted,0,70,Medium,95,117.5
CID-TOR269,"510 E Valentine St, Tyler, TX 75702",75702,Torreon Auto Electric Repair,Electrician,32.3593673,-95.2957309,No Outreach,12/30/1899,,,,Never Contacted,0,70,Medium,95,117.5
CID-WEL270,"17190 I-20, Winona, TX 75792",75792,Welch Excavation & Utility Co,Construction,32.4369502,-95.1182815,No Outreach,12/30/1899,,,,Never Contacted,0,70,Medium,95,117.5
CID-EAS271,"1529 E Travis St, Tyler, TX 75701",75701,EASY ROOFING,Construction,32.3421418,-95.2817092,No Outreach,12/30/1899,,,,Never Contacted,0,70,Medium,95,117.5
CID-S&2272,"933 Whipporwill Dr, Murchison, TX 75778",75778,S & K Electronics,Electrician,32.3734675,-95.6901106,No Outreach,12/30/1899,,,,Never Contacted,0,70,Medium,95,117.5
CID-RAY273,"626 Negem Dr, Tyler, TX 75702",75702,Ray Engine,Auto,32.3568255,-95.320968,Account Won,11/07/2025,69,-30,11/12/2025,FOLLOW-UP REQUIRED,0.2,60,Medium,90,110
CID-AND274,"2025 TX-323 S Loop, Tyler, TX 75701",75701,Anderson Automotive,Auto,32.3276737,-95.2666432,Not interested,12/29/2025,17,,,FOLLOW-UP REQUIRED,0.2,60,Medium,90,110
CID-ENG275,"1502 E Grande Blvd, Tyler, TX 75703",75703,Engines Express,Auto,32.2788734,-95.2833829,Initial contact,01/05/2026,10,,,FOLLOW-UP REQUIRED,0.2,60,Medium,90,110
CID-PRE276,"13382 TX-110, Tyler, TX 75707",75707,Premier Auto Repair,Auto,32.2844451,-95.2506662,Interested,11/12/2025,64,-16,11/26/2025,FOLLOW-UP REQUIRED,0.2,60,Medium,90,110
CID-PED277,"2022 E Gentry Pkwy, Tyler, TX 75702",75702,Pedros Paint and Body,Auto,32.3202746,-95.4438999,Interested,12/10/2025,36,2,12/14/2025,FOLLOW-UP REQUIRED,0.2,60,Medium,90,110
CID-TYL278,"11959 County Road 219, Tyler, TX 75707",75707,Tyler Auto Repair,Auto,32.3181167,-95.2103899,No Outreach,12/30/1899,,,,Never Contacted,0,60,Medium,85,102.5
CID-CLA279,"1717 W SW Loop 323, Tyler, TX 75701",75701,Classic Toyota Collision Center,Auto,32.3057789,-95.3208778,No Outreach,12/30/1899,,,,Never Contacted,0,60,Medium,85,102.5
CID-ALI280,"631 TX-323 S Loop, Tyler, TX 75702",75702,Alignment King,Auto,32.3434907,-95.2676605,No Outreach,12/30/1899,,,,Never Contacted,0,60,Medium,85,102.5
CID-C.A281,"2944 Old Henderson Hwy, Tyler, TX 75707",75707,C.A.R.S. Garage,Auto,32.3394876,-95.2627624,No Outreach,12/30/1899,,,,Never Contacted,0,60,Medium,85,102.5
CID-ON-282,"830 TX-323 S Loop, Tyler, TX 75702",75702,ON-Sight Auto Body,Auto,32.3863263,-95.3194216,No Outreach,12/30/1899,,,,Never Contacted,0,60,Medium,85,102.5
CID-2M2002,"4064 S Broadway Ave, Tyler, TX 75701",75701,2M Automotive,Auto,32.305281,-95.2989375,No Outreach,12/30/1899,,,,Never Contacted,0,60,Medium,85,102.5
CID-BOD284,"1717 TX-323 W Loop, Tyler, TX 75701",75701,Body Shop,Auto,32.3306999,-95.2665254,No Outreach,12/30/1899,,,,Never Contacted,0,60,Medium,85,102.5
CID-BRO285,"3900 Troup Hwy, Tyler, TX 75703",75703,Brown's Automotive,Auto,32.307277,-95.2691275,No Outreach,12/30/1899,,,,Never Contacted,0,60,Medium,85,102.5
CID-BUT286,"1011 W Front St, Tyler, TX 75702",75702,Butler Alignment &Brake,Auto,32.3472419,-95.3115059,No Outreach,12/30/1899,,,,Never Contacted,0,60,Medium,85,102.5
CID-COM287,"1315 E Gentry Pkwy, Tyler, TX 75702",75702,Complete Auto and Diesel Services LLC,Auto,32.3629842,-95.2903689,No Outreach,12/30/1899,,,,Never Contacted,0,60,Medium,85,102.5
CID-DAN288,"630 E Gentry Pkwy, Tyler, TX 75702",75702,Daniel's Auto,Auto,32.3605018,-95.2938055,No Outreach,12/30/1899,,,,Never Contacted,0,60,Medium,85,102.5
CID-DEL289,"1117 W Erwin St, Tyler, TX 75702",75702,Delatrinidad Auto Body Shop,Auto,32.3508203,-95.3131442,No Outreach,12/30/1899,,,,Never Contacted,0,60,Medium,85,102.5
CID-DOW290,"504 E Erwin St, Tyler, TX 75702",75702,DOWNTOWN GARAGE,Auto,32.350995,-95.2959168,No Outreach,12/30/1899,,,,Never Contacted,0,60,Medium,85,102.5
CID-DUR291,"823 E Line St, Tyler, TX 75702",75702,Duran's Auto Repair,Auto,32.3539431,-95.2916252,No Outreach,12/30/1899,,,,Never Contacted,0,60,Medium,85,102.5
CID-EXP292,"13970 State Hwy 64, Tyler, TX 75704",75704,Expert Auto Electric,Auto,32.3637182,-95.3982592,No Outreach,12/30/1899,,,,Never Contacted,0,60,Medium,85,102.5
CID-F&2293,"1023 W Bow St, Tyler, TX 75702",75702,F & J AUTO SERVICE,Auto,32.3585264,-95.3121424,No Outreach,12/30/1899,,,,Never Contacted,0,60,Medium,85,102.5
CID-FIF294,"3315 Old Troup Hwy, Tyler, TX 75701",75701,Fifties Oil Change and Service Center,Auto,32.3136984,-95.272466,No Outreach,12/30/1899,,,,Never Contacted,0,60,Medium,85,102.5
CID-FIR295,"1637 S Vine Ave, Tyler, TX 75701",75701,Firestation Service Center,Auto,32.3309501,-95.3121943,No Outreach,12/30/1899,,,,Never Contacted,0,60,Medium,85,102.5
CID-HIL296,"115 S Fleishel Ave, Tyler, TX 75702",75702,Hillside Auto Service LLC,Auto,32.3506643,-95.2892684,No Outreach,12/30/1899,,,,Never Contacted,0,60,Medium,85,102.5
CID-HON297,"2425 SW Loop 323, Tyler, TX 75701",75701,Honest1 Auto Care,Auto,32.3049062,-95.3320402,No Outreach,12/30/1899,,,,Never Contacted,0,60,Medium,85,102.5
CID-HUG298,"2100 E 5th St, Tyler, TX 75701",75701,Hughes Automotive,Auto,32.3326589,-95.2747954,Interested (Hot),12/30/1899,,,,Never Contacted,0,60,Medium,85,102.5
CID-JR2299,"2523 E Commerce St, Tyler, TX 75702",75702,Jr Custom Paint & Collision Repair,Auto,32.3555056,-95.2692335,No Outreach,12/30/1899,,,,Never Contacted,0,60,Medium,85,102.5
CID-JT3300,"That Rd, Flint, TX 75762",75762,JT Electronics,Auto,32.2211573,-95.3471007,No Outreach,12/30/1899,,,,Never Contacted,0,60,Medium,85,102.5
CID-KAS301,"409 N Glenwood Blvd, Tyler, TX 75702",75702,KASCO PAINT AND BODY,Auto,32.3536891,-95.3188448,No Outreach,12/30/1899,,,,Never Contacted,0,60,Medium,85,102.5
CID-LON302,"10487 County Road 210, Tyler, TX 75707",75707,Lon's Cylinder Head Repair,Auto,32.3276318,-95.2102653,No Outreach,12/30/1899,,,,Never Contacted,0,60,Medium,85,102.5
CID-MIL303,"6715 Rhones Quarter Rd, Tyler, TX 75707",75707,Miller's Automotive Repair,Auto,32.2753267,-95.2611294,No Outreach,12/30/1899,,,,Never Contacted,0,60,Medium,85,102.5
CID-RAY304,"1015 E Nutbush St, Tyler, TX 75702",75702,Ray's Automotive,Auto,32.3682747,-95.2897039,No Outreach,12/30/1899,,,,Never Contacted,0,60,Medium,85,102.5
CID-S&3305,"3055 E 5th St, Tyler, TX 75701",75701,S & J Automotive,Auto,32.3322643,-95.2586293,No Outreach,12/30/1899,,,,Never Contacted,0,60,Medium,85,102.5
CID-SER306,"4827 Troup Hwy, Tyler, TX 75703",75703,Service Department Fairway Auto Center,Auto,32.2979231,-95.2652471,No Outreach,12/30/1899,,,,Never Contacted,0,60,Medium,85,102.5
CID-TEN307,"3160 TX-323 Loop, Tyler, TX 75701",75701,Tennison Automotive,Auto,32.3035015,-95.3083565,No Outreach,12/30/1899,,,,Never Contacted,0,60,Medium,85,102.5
CID-THE308,"1700 SE Loop 323, Tyler, TX 75701",75701,"The Storm Guys - Auto Hail Repair - Tyler, TX",Auto,32.3084959,-95.280707,No Outreach,12/30/1899,,,,Never Contacted,0,60,Medium,85,102.5
CID-TNT309,"11682 State Highway 64 E, Tyler, TX 75707",75707,TNT Muffler,Auto,32.320161,-95.2155351,No Outreach,12/30/1899,,,,Never Contacted,0,60,Medium,85,102.5
CID-TOO310,"3621 FM 2767, Tyler, TX 75708",75708,Toole Tire,Auto,32.3537199,-95.2616885,No Outreach,12/30/1899,,,,Never Contacted,0,60,Medium,85,102.5
CID-TYL311,"1505 E Erwin St, Tyler, TX 75702",75702,Tyler Car Care,Auto,32.3509349,-95.2825832,No Outreach,12/30/1899,,,,Never Contacted,0,60,Medium,85,102.5
CID-TYL312,"910 W Erwin St, Tyler, TX 75702",75702,Tyler Mobile Mechanic,Auto,32.3501584,-95.3109051,No Outreach,12/30/1899,,,,Never Contacted,0,60,Medium,85,102.5
CID-A&A313,"320 S Beckham Ave, Tyler, TX 75702",75702,A&A Auto Service,Auto,32.3475639,-95.2940208,No Outreach,12/30/1899,,,,Never Contacted,0,60,Medium,85,102.5
CID-ABC314,"306 N NW Loop 323, Tyler, TX 75701",75701,ABC Auto Parts,Auto,32.3565691,-95.343873,No Outreach,12/30/1899,,,,Never Contacted,0,60,Medium,85,102.5
CID-ART315,"419 N Glenwood Blvd, Tyler, TX 75702",75702,Arturo's Automotive,Auto,32.3545523,-95.3188276,No Outreach,12/30/1899,,,,Never Contacted,0,60,Medium,85,102.5
CID-ATL316,"415 S Palace Ave, Tyler, TX 75702",75702,Atlas Automotive,Auto,32.3459578,-95.3107562,No Outreach,12/30/1899,,,,Never Contacted,0,60,Medium,85,102.5
CID-BRO317,"2700 S Broadway Ave, Tyler, TX 75701",75701,Broadway Automotive,Auto,32.320322,-95.3003472,No Outreach,12/30/1899,,,,Never Contacted,0,60,Medium,85,102.5
CID-COL318,"3120 TX-323 S Loop, Tyler, TX 75701",75701,Collision Center Tyler,Auto,32.3136279,-95.3392281,No Outreach,12/30/1899,,,,Never Contacted,0,60,Medium,85,102.5
CID-ONE319,"1602 W Front St, Tyler, TX 75702",75702,One Stop Auto Center,Auto,32.3462484,-95.3185419,No Outreach,12/30/1899,,,,Never Contacted,0,60,Medium,85,102.5
CID-SAN320,"2515 E Commerce St, Tyler, TX 75702",75702,Santiago Paint and Body,Auto,32.3556204,-95.2694287,No Outreach,12/30/1899,,,,Never Contacted,0,60,Medium,85,102.5
CID-TEX321,"13229 County Rd 285, Tyler, TX 75707",75707,"Texas Sheet Metal, LLC",Metalworking,32.287545,-95.1810425,Account Won,12/30/1899,25,-20,11/22/2025,Won,1,50,Low,75,112.5
CID-COL322,"12862 Frankston Hwy, Tyler, TX 75703",75703,Coleman Roofing,Roofing,32.2953123,-95.3476006,Disqualified,11/11/2025,65,149,05/10/2026,DISQUALIFIED,0,65,Medium,60,45
CID-TEX323,"11865 County Road 46, Tyler, TX 75704",75704,Texas Steel Carports,Construction,32.3733355,-95.3626175,Not interested,11/14/2025,62,,05/13/2026,DISQUALIFIED,0,70,Medium,65,52.5
CID-WAT324,"443B DC Dr, Tyler, TX 75701",75701,Waterman Electric,Electrician,32.3005528,-95.3247707,Disqualified,11/10/2025,66,148,05/09/2026,DISQUALIFIED,0,70,Medium,65,52.5
CID-BAK325,"Private Address in Tyler, Texas",#N/A,baker construction,Construction,32.3512601,-95.3010624,Disqualified,12/09/2025,37,,,DISQUALIFIED,0,70,Medium,65,52.5
CID-643064,"12367 State Highway 64 W, Tyler, TX 75704",75704,64 West Building Materials,Construction,32.3583187,-95.3720415,Disqualified,11/14/2025,62,152,05/13/2026,DISQUALIFIED,0,70,Medium,65,52.5
CID-JOE327,"316 S Glenwood Blvd, Tyler, TX 75702",75702,"Joe W. Fly Co., Inc.",HVAC,32.3478771,-95.3154338,Initial contact,01/05/2026,10,,,FOLLOW-UP REQUIRED,0.2,50,Low,55,82.5
CID-C.3328,"2320 E Erwin St STE B, Tyler, TX 75702",75702,C. Woods Company,HVAC,32.3519669,-95.2717445,Initial contact,01/02/2026,13,,,FOLLOW-UP REQUIRED,0.2,50,Low,55,82.5
CID-ROS329,"802 S SW Loop 323, Tyler, TX 75701",75701,Rose City Air,HVAC,32.3408348,-95.339092,Interested,11/26/2025,50,74,02/24/2026,FOLLOW-UP REQUIRED,0.2,50,Low,55,82.5
CID-TYL330,"2503 E Erwin St, Tyler, TX 75702",75702,Tyler Weathermakers Inc,HVAC,32.3514175,-95.2704547,Initial contact,01/02/2026,13,,,FOLLOW-UP REQUIRED,0.2,50,Low,55,82.5
CID-MCC331,"13085 County Rd 192, Tyler, TX 75703",75703,McCoy's Plumbing Inc,Plumber,32.2897317,-95.3411388,Interested,01/09/2026,7,,,FOLLOW-UP REQUIRED,0.2,50,Low,55,82.5
CID-TYL332,"1429 S Beckham Ave, Tyler, TX 75701",75701,Tyler Heating and Air Conditioning,HVAC,32.3321478,-95.2917844,Initial contact,12/26/2025,20,,,FOLLOW-UP REQUIRED,0.2,50,Low,55,82.5
CID-903903333,"330 S Vaughn Ave, Tyler, TX 75702",75702,903 Plumbing,Plumber,32.3477823,-95.3372541,Initial Contact,12/23/2025,23,,,FOLLOW-UP REQUIRED,0.2,50,Low,55,82.5
CID-ESC334,"14674 State Hwy 155, Tyler, TX 75703",75703,Eschberger Plumbing Company LLC,Plumber,32.2683731,-95.3776781,Initial contact,12/30/2025,16,,,FOLLOW-UP REQUIRED,0.2,50,Low,55,82.5
CID-CAL335,"2951 State Highway 31 E, Tyler, TX 75702",75702,Callibur Collision,Automotive,32.2911893,-95.3498847,Interested,12/30/2025,16,3,,FOLLOW-UP REQUIRED,0.2,50,Low,55,82.5
CID-CAR336,"2415 E Erwin St, Tyler, TX 75702",75702,Carl Owens Truck-RV Collision,Automotive,32.3513042,-95.2712823,Initial contact,01/02/2026,13,,,FOLLOW-UP REQUIRED,0.2,50,Low,55,82.5
CID-BRA337,"11179 County Road 168, Tyler, TX 75703",75703,Braze Tech,Welding,32.234248,-95.3514753,Account Won,01/09/2026,6,,,FOLLOW-UP REQUIRED,0.2,50,Low,55,82.5
CID-EAS338,"4719 Old Troup Hwy, Tyler, TX 75707",75707,East Texas Collision Repair,Plumbing & HVAC,32.3098472,-95.3412563,Interested,12/09/2025,37,-16,12/22/2025,FOLLOW-UP REQUIRED,0.2,50,Low,55,82.5
CID-ABC339,"3307 Chandler Hwy, Tyler, TX 75702",75702,ABC Home & Commercial Services,Contruction,32.3467519,-95.3369672,Initial contact,01/05/2026,10,,,FOLLOW-UP REQUIRED,0.2,50,Low,55,82.5
CID-BRO340,"12421 State Hwy 155, Tyler, TX 75703",75703,Broadway Powersports,Auto,32.2675535,-95.3760553,Initial contact,12/30/2025,16,,,FOLLOW-UP REQUIRED,0.2,60,Medium,90,110
CID-COK341,"13906 Rex Pl, Tyler, TX 75703",75703,Coker Enterprises - Trailer,Metal ,32.3322395,-95.25891,Interested,01/02/2026,13,4,,FOLLOW-UP REQUIRED,0.2,50,Low,55,82.5
CID-WC3342,"329 S Bonner Ave, Tyler, TX 75702",75702,WC Supply Store,Parts,32.30151,-95.3406074,Initial contact,12/29/2025,17,,,FOLLOW-UP REQUIRED,0.2,50,Low,55,82.5
CID-JOE343,"5005 Old Jacksonville Hwy, Tyler, TX 75703",75703,Joe Hudson,Auto,32.3386998,-95.2626079,Interested,12/22/2025,24,19,12/31/2025,FOLLOW-UP REQUIRED,0.2,60,Medium,90,110
CID-TRA344,"536 S Glenwood Blvd, Tyler, TX 75702",75702,Trac Ornamental Iron,Metalworking,32.3440245,-95.3121088,Interested,11/07/2025,69,55,02/05/2026,FOLLOW-UP REQUIRED,0.2,50,Low,55,82.5
CID-ACC345,"12406 SH 155 S, Tyler, TX 75703",75703,Access 2 Mobility,Auto,32.2857726,-95.3310084,Initial contact,12/29/2025,17,,,FOLLOW-UP REQUIRED,0.2,60,Medium,90,110
CID-ARI346,"18520 Hw 69 N., Lindale, TX 75771",75771,Ariens Lawn Mower,Auto,32.3355771,-95.3372809,Interested,11/21/2025,55,69,02/19/2026,FOLLOW-UP REQUIRED,0.2,60,Medium,90,110
CID-ATS347,"14685 State Hwy 155 S, Tyler, TX 75703",75703,ATS Outdoor,Auto,32.2675535,-95.3760553,Initial contact,01/09/2026,6,,,FOLLOW-UP REQUIRED,0.2,60,Medium,90,110
CID-BUF348,"16255 County Road 178, Tyler, TX 75703",75703,Buford Satellite Systems LP,Other,32.2436595,-95.36252,Initial contact,12/26/2025,20,,,FOLLOW-UP REQUIRED,0.2,50,Low,55,82.5
CID-HAB349,"3001 University Boulevard, Tyler, Texas 75701",75701,Habitat for Humanity,Other,32.3727574,-95.2519163,Interested,01/06/2026,9,55,02/05/2026,FOLLOW-UP REQUIRED,0.2,50,Low,55,82.5
CID-HEA350,"219 S Glenwood Blvd, Tyler, TX 75702",75702,Heavy Metal and Welding,Metalworking,32.2319094,-95.0502733,Interested,01/06/2026,9,55,02/05/2026,FOLLOW-UP REQUIRED,0.2,50,Low,55,82.5
CID-JOE351,"801 W Erwin St, Tyler, TX 75702",75702,Joe's Autoworks,Automotive,32.2944952,-95.3270221,Interested,11/13/2025,63,,02/11/2026,FOLLOW-UP REQUIRED,0.2,50,Low,55,82.5
CID-LEW352,"1716 E Erwin St, Tyler, TX 75702",75702,Lews Welding,Welding,32.2888475,-95.2640359,Account Won,12/23/2025,22,-15,11/27/2025,FOLLOW-UP REQUIRED,0.2,50,Low,55,82.5
CID-MAG353,"3891 County Road 389, Tyler, TX 75705",75705,Magneto Service & Supply,Other,32.3499554,-95.3059643,Interested,11/13/2025,63,-15,11/27/2025,FOLLOW-UP REQUIRED,0.2,50,Low,55,82.5
CID-MAS354,"5855 Old Jacksonville Hwy, Tyler, TX 75703",75703,Mas Tec,Other,32.2857726,-95.3310084,Initial contact,01/02/2026,13,,,FOLLOW-UP REQUIRED,0.2,50,Low,55,82.5
CID-MID355,"14661 State Hwy 155 S, Tyler, TX 75703",75703,Midtown Appliance,Other,32.3475156,-95.3062481,Initial contact,12/29/2025,17,,,FOLLOW-UP REQUIRED,0.2,50,Low,55,82.5
CID-MUR356,"513 N Poplar Ave, Tyler, TX 75702",75702,Murpheys Welding,Welding,32.3474582,-95.275549,Account Won,11/26/2025,50,-11,12/01/2025,FOLLOW-UP REQUIRED,0.2,50,Low,55,82.5
CID-OVE357,"16474 St Hwy 31W, Tyler, TX 75709",75709,Overhead Door Company,Other,32.3509349,-95.2825832,Interested,01/06/2026,9,-18,12/21/2025,FOLLOW-UP REQUIRED,0.2,50,Low,55,82.5
CID-PET358,"12872 State Hwy 155 Suite 18, Tyler, TX 75703",75703,Petroleum Group,Other,32.3724976,-95.2879909,Interested,11/21/2025,55,-7,12/05/2025,FOLLOW-UP REQUIRED,0.2,50,Low,55,82.5
CID-PRO359,"16678 State Hwy 155, Tyler, TX 75703",75703,Prolific Welding,Welder,32.2393567,-95.4046703,Interested,11/11/2025,65,-17,11/25/2025,FOLLOW-UP REQUIRED,0.2,50,Low,55,82.5
CID-QUA360,"3227 US-271, Tyler, TX 75708",75708,Quality Burning/T&G Welding,Welding,32.3782868,-95.2837922,Interested,11/13/2025,63,-15,11/27/2025,FOLLOW-UP REQUIRED,0.2,50,Low,55,82.5
CID-RAY361,"1326 W Gentry Pkwy, Tyler, TX 75702",75702,Rayson Autobody LLC,Automotive,32.3595696,-95.3156418,Account Won,11/18/2025,58,-19,11/23/2025,FOLLOW-UP REQUIRED,0.2,50,Low,55,82.5
CID-SEC362,"10504 County Rd 490, Tyler, TX 75706",75706,Second Generation Arc N Spark Welding,Other,32.4108115,-95.3394002,Interested,11/17/2025,59,65,02/15/2026,FOLLOW-UP REQUIRED,0.2,50,Low,55,82.5
CID-THA363,"3901 Old Jacksonville Hwy, Tyler, TX 75701",75701,That Window Guy,Other,32.3077205,-95.3234744,Initial contact,01/05/2026,10,,,FOLLOW-UP REQUIRED,0.2,50,Low,55,82.5
CID-TYL364,"5043 Shirley Dr, Tyler, TX 75708",75708,Tyler Industrial Supply,Other,32.3829279,-95.2647896,Interested,12/11/2025,35,12,12/24/2025,FOLLOW-UP REQUIRED,0.2,50,Low,55,82.5
CID-WON365,"11011 US Highway 69 North, Tyler, Texas 75706",75706,WON Motors LLC,Automotive,32.4253667,-95.3609574,Initial contact,11/25/2025,51,13,12/25/2025,FOLLOW-UP REQUIRED,0.2,50,Low,55,82.5
CID-PUM366,"6461 Reynolds Rd, Tyler, TX 75708",75708,pump works,Manufacturing,32.3854242,-95.2800426,Interested,12/10/2025,36,,,FOLLOW-UP REQUIRED,0.2,50,Low,55,82.5
CID-BES367,"6290 Reynolds Rd, Tyler, TX 75708",75708,Bestway Oilfield,Other,32.3860858,-95.2780479,Interested,12/10/2025,36,,,FOLLOW-UP REQUIRED,0.2,50,Low,55,82.5
CID-ST3368,"6357 Reynolds Rd, Tyler, TX 75708",75708,st fastener,Other,32.3851265,-95.2784344,Interested,12/10/2025,36,,,FOLLOW-UP REQUIRED,0.2,50,Low,55,82.5
CID-TYL369,"985 E Northeast Loop 323, Tyler, TX 75708",75708,Tyler R.V.,Other,32.3876777,-95.2801634,Account Won,12/10/2025,36,,,FOLLOW-UP REQUIRED,0.2,50,Low,55,82.5
CID-AEG370,"2601 Network Blvd #102, Frisco, TX 75034",75034,Aegis Therapy,Other,33.101736,-96.827312,Initial contact,12/12/2025,33,,,FOLLOW-UP REQUIRED,0.2,50,Low,55,82.5
CID-MCD371,"2705 E 5th St, Tyler, TX 75701",75701,McDonalds,Other,32.3319886,-95.2650639,Initial contact,12/12/2025,33,,,FOLLOW-UP REQUIRED,0.2,50,Low,55,82.5
CID-HAU372,Address Not Found,#N/A,Hauling it Off or On,Junk Removal,NA,NA,Account Won,12/22/2025,24,,,FOLLOW-UP REQUIRED,0.2,50,Low,55,82.5
CID-ONE373,"14762 State Hwy 110 S, Whitehouse, TX 75791",75791,One Ten Welding,Other,32.2639775,-95.2405148,Interested,12/22/2025,24,,,FOLLOW-UP REQUIRED,0.2,50,Low,55,82.5
CID-ROZ374,"14264 Hwy 64 W, Tyler, TX 75704",75704,Rozells,Other,32.320161,-95.2155351,Interested,12/22/2025,24,,,FOLLOW-UP REQUIRED,0.2,50,Low,55,82.5
CID-BIZ375,"111 W 5th St, Noonday, TX 75762",75762,Bizzy Bees Junk Removal,Junk Removal,32.3307227,-95.30168,Interested,01/15/2026,24,,,FOLLOW-UP REQUIRED,0.2,50,Low,55,82.5
CID-SAW376,"12562 Hwy 64 W, Tyler, TX 75704",75704,Sawyer Metals,Metalworking,32.320161,-95.2155351,Initial contact,12/22/2025,24,,,FOLLOW-UP REQUIRED,0.2,50,Low,55,82.5
CID-ROS377,"13652 State Hwy 31 W, Tyler, TX 75709",75709,Rose City Fab,Manufacturing,32.3325517,-95.3958775,Initial contact,12/22/2025,24,,,FOLLOW-UP REQUIRED,0.2,50,Low,55,82.5
CID-CAT378,"12198 State Highway 64 W, Tyler, TX 75704",75704,Cates Machinery,Manufacturing,32.3592199,-95.3688191,Initial contact,12/22/2025,24,,,FOLLOW-UP REQUIRED,0.2,50,Low,55,82.5
CID-NO3379,"420 E Seagle St Suite B, Tyler, TX 75701",75701,No Junk,Junk Removal,32.3250314,-95.2965838,Account Won,12/23/2025,22,,,FOLLOW-UP REQUIRED,0.2,50,Low,55,82.5
CID-TYL380,"2626 S Southwest Loop 323, Tyler, TX 75701",75701,Tyler Ford,Auto,32.3200218,-95.3404903,Initial contact,01/06/2026,9,,,FOLLOW-UP REQUIRED,0.2,60,Medium,90,110
CID-PRE381,"1608 E Richards St, Tyler, TX 75702",75702,Precision Junk Removal,Other,32.3493703,-95.2813846,Initial contact,01/06/2026,9,,,FOLLOW-UP REQUIRED,0.2,50,Low,55,82.5
CID-TOP382,"603 Whiteside Rd, Tyler, TX 75702",75702,Topline,Welding,32.3435296,-95.3441676,Interested,01/08/2026,7,,,FOLLOW-UP REQUIRED,0.2,50,Low,55,82.5
CID-SOU383,"12547 State Highway 31 W Bldg B, Tyler, TX 75709",75709,Southern Comfort Heating and Air,Plumbing & HVAC,32.3359887,-95.3753896,Not Contacted,01/08/2026,7,,,FOLLOW-UP REQUIRED,0.2,50,Low,55,82.5
CID-SMI384,"831 W Erwin St, Tyler, TX 75702",75702,Smith Offroad,Other,32.3509549,-95.3100258,Interested,01/08/2026,7,,,FOLLOW-UP REQUIRED,0.2,50,Low,55,82.5
CID-TYL385,"108 S Palace Ave, Tyler, TX 75702",75702,Tyler Radiator Shop,Other,32.350136,-95.3100462,Interested,01/08/2026,7,,,FOLLOW-UP REQUIRED,0.2,50,Low,55,82.5
CID-GUT386,"17555 Highway 155 South, Flint, Texas 75762",75762,Gutter Gutter,Other,32.2678802,-95.3756122,Interested,11/12/2025,64,-16,11/26/2025,FOLLOW-UP REQUIRED,0.2,50,Low,55,82.5
CID-WC3387,"105 Blackberry Blvd, Lindale, TX 75771",75771,WC Brakes and Service Parts,Other,32.2678802,-95.3756122,Initial contact,12/29/2025,17,,,FOLLOW-UP REQUIRED,0.2,50,Low,55,82.5
CID-EAS388,"3451 S Loop 323, Tyler, TX 75701",75701,East Texas Automotive,Automotive,32.3629842,-95.2903689,Interested,11/14/2025,62,-14,11/28/2025,FOLLOW-UP REQUIRED,0.2,50,Low,55,82.5
CID-ELD389,"12861 Candleridge Drive, Tyler, Texas 75709",75709,Eldridge Hayter,Junk Removal,32.3635362,-95.4129799,No Outreach,12/30/1899,,,,FOLLOW-UP REQUIRED,0.2,50,Low,55,82.5
CID-JOH390,"14630 State Hwy 155, Tyler, TX 75703",75703,John Deere,Agriculture ,32.3635362,-95.4129799,Interested,01/12/2026,,,,FOLLOW-UP REQUIRED,0.2,50,Low,55,82.5
CID-RAI391,"910 Peggy Dr, Whitehouse, TX 75791",75791,Rains Plumbing,Plumber,32.2143457,-95.2164882,No Outreach,12/30/1899,,,,Never Contacted,0,50,Low,50,75
CID-TUT392,"3338 Martha St, Tyler, TX 75702",75702,Tutor & Fuller Plumbing Co,Plumber,32.3745939,-95.341319,No Outreach,12/30/1899,,,,Never Contacted,0,50,Low,50,75
CID-HEA393,"3130 Troup Hwy, Tyler, TX 75701",75701,Heating and Air Conditioning,HVAC,32.3154265,-95.275712,No Outreach,12/30/1899,,,,Never Contacted,0,50,Low,50,75
CID-TYL394,"803 N Confederate Ave, Tyler, TX 75702",75702,Tyler Heating & Air Conditioning,HVAC,32.3584211,-95.3145983,No Outreach,12/30/1899,,,,Never Contacted,0,50,Low,50,75
CID-A/C395,"2930 County Rd 2347, Tyler, TX 75701",75701,A/C Contractors,HVAC,32.3509994,-95.2631323,No Outreach,12/30/1899,,,,Never Contacted,0,50,Low,50,75
CID-ACE396,"15330 County Rd 196, Tyler, TX 75703",75703,Ace Air Conditioning,HVAC,32.2580591,-95.3853081,No Outreach,12/30/1899,,,,Never Contacted,0,50,Low,50,75
CID-AIR397,"104 Jones St, Chandler, TX 75758",75758,Air Chandler Heating & Cooling,HVAC,32.3065665,-95.4785594,No Outreach,12/30/1899,,,,Never Contacted,0,50,Low,50,75
CID-AIR398,"2903 Crestview Ave, Tyler, TX 75701",75701,Air Comfort Specialists,HVAC,32.3173579,-95.2965752,No Outreach,12/30/1899,,,,Never Contacted,0,50,Low,50,75
CID-AIR399,"2221 W SW Loop 323 #103a, Tyler, TX 75701",75701,Aire Serv of Smith County,HVAC,32.3051393,-95.3293599,No Outreach,12/30/1899,,,,Never Contacted,0,50,Low,50,75
CID-BAK400,"13225 Kallan Ave, Tyler, TX 75703",75703,Baker Distributing Company,HVAC,32.2900776,-95.3505777,No Outreach,12/30/1899,,,,Never Contacted,0,50,Low,50,75
CID-BAN401,"6618 S Broadway Ave, Tyler, TX 75703",75703,Bannister Plumbing & Air,HVAC,32.2772543,-95.3060917,No Outreach,12/30/1899,,,,Never Contacted,0,50,Low,50,75
CID-CE4402,"2323 Broussard Street, Tyler, TX 75701",75701,CE (Carrier Enterprise),HVAC,32.296898,-95.3294553,No Outreach,12/30/1899,,,,Never Contacted,0,50,Low,50,75
CID-EVA403,"3484 FM 2813, Flint, TX 75762",75762,"Evans Air Conditioning, The Original",HVAC,32.2397634,-95.3174604,No Outreach,12/30/1899,,,,Never Contacted,0,50,Low,50,75
CID-IND404,"11839 County Rd 497, Lindale, TX 75771",75771,Indoor Comfort Heating and Air,HVAC,32.4943115,-95.3604873,No Outreach,12/30/1899,,,,Never Contacted,0,50,Low,50,75
CID-JON405,"18949 State Highway 155 S, Flint, TX 75762",75762,Jonny Bs AC mini splits,HVAC,32.2051593,-95.4223715,No Outreach,12/30/1899,,,,Never Contacted,0,50,Low,50,75
CID-LEE406,"11851 TX-248 Spur, Tyler, TX 75707",75707,Lee's Plumbing,Plumber,32.3162595,-95.2131611,No Outreach,12/30/1899,,,,Never Contacted,0,50,Low,50,75
CID-LEN407,"1818 Capital Drive, Tyler, TX 75701",75701,Lennox Stores (Parts Plus),HVAC,32.2964769,-95.3263353,No Outreach,12/30/1899,,,,Never Contacted,0,50,Low,50,75
CID-LEX408,"2105 Anthony Dr, Tyler, TX 75701",75701,LEX ETX,HVAC,32.3020427,-95.327706,No Outreach,12/30/1899,,,,Never Contacted,0,50,Low,50,75
CID-MAU409,"7434 Waterview Sq, Tyler, TX 75703",75703,Mauch Plumbing LLC,Plumber,32.2704259,-95.3472445,No Outreach,12/30/1899,,,,Never Contacted,0,50,Low,50,75
CID-PRO410,"527 E Erwin St, Tyler, TX 75702",75702,Pro-Tech Services Air Conditioning And Heating,HVAC,32.3507014,-95.295181,No Outreach,12/30/1899,,,,Never Contacted,0,50,Low,50,75
CID-RUB411,"13213 State Hwy 155 Ste A, Tyler, TX 75703",75703,Rub-A-Dub Plumbing Tyler,Plumber,32.2891514,-95.3521922,No Outreach,12/30/1899,,,,Never Contacted,0,50,Low,50,75
CID-RUD412,"1502 E Erwin St, Tyler, TX 75702",75702,Rudd Plumbing,Plumber,32.351506,-95.2825533,No Outreach,12/30/1899,,,,Never Contacted,0,50,Low,50,75
CID-SHE413,"2020 Capital Drive, Tyler, TX 75701",75701,Shearer Supply Tyler,HVAC,32.2968366,-95.3284383,No Outreach,12/30/1899,,,,Never Contacted,0,50,Low,50,75
CID-SUP414,"4588 Old Troup Hwy #20, Tyler, TX 75707",75707,Super Plumbers,Plumber,32.3014376,-95.2638116,No Outreach,12/30/1899,,,,Never Contacted,0,50,Low,50,75
CID-TDI415,"2600 E 5th St, Tyler, TX 75701",75701,TDI AIR CONDITIONING,HVAC,32.3327249,-95.2678614,No Outreach,12/30/1899,,,,Never Contacted,0,50,Low,50,75
CID-TEX416,"10276 Robinson Dr, Tyler, TX 75703",75703,"Texas Filter Service, LLC",HVAC,32.2993117,-95.336922,No Outreach,12/30/1899,,,,Never Contacted,0,50,Low,50,75
CID-THE417,"5573 County Rd 219, Tyler, TX 75707",75707,The Mink Plumbing,Plumber,32.3270709,-95.2433295,Interested (Warm),12/30/1899,,,,Never Contacted,0,50,Low,50,75
CID-WAL418,"15463 State Hwy 64, Tyler, TX 75704",75704,Walker Heating & Cooling,HVAC,32.3642441,-95.4252922,No Outreach,12/30/1899,,,,Never Contacted,0,50,Low,50,75
CID-C&R419,"19747 TX-110, Whitehouse, TX 75791",75791,C&R Heating and Cooling,HVAC,32.1910978,-95.2011844,No Outreach,12/30/1899,,,,Never Contacted,0,50,Low,50,75
CID-SEA420,"212 N Bonner Ave, Tyler, TX 75702",75702,Sears Heating and Air Conditioning,HVAC,32.3522118,-95.3060022,No Outreach,12/30/1899,,,,Never Contacted,0,50,Low,50,75
CID-WAT421,"13097 State Hwy 31 W, Tyler, TX 75709",75709,"Watson Plumbing, Inc.",Plumber,32.3311187,-95.3849873,No Outreach,12/30/1899,,,,Never Contacted,0,50,Low,50,75
CID-AIR422,"3844 Lamb Dr, Tyler, TX 75709",75709,"AirPro Elite AC & Heating, LLC",HVAC,32.3156757,-95.3523568,No Outreach,12/30/1899,,,,Never Contacted,0,50,Low,50,75
CID-STO423,"2320 E Erwin St STE C, Tyler, TX 75702",75702,StoneBridge Heating & Air Conditioning,HVAC,32.3519019,-95.2717403,No Outreach,12/30/1899,,,,Never Contacted,0,50,Low,50,75
CID-TEX424,"11959 County Rd 219 #13, Tyler, TX 75707",75707,Texas Plumbing Pros,Plumber,32.3181257,-95.2104423,No Outreach,12/30/1899,,,,Never Contacted,0,50,Low,50,75
CID-DAU425,"10392 TX-31, Tyler, TX 75705",75705,Dauphin Plumbing Co,Plumber,32.349195,-95.2353739,No Outreach,12/30/1899,,,,Never Contacted,0,50,Low,50,75
CID-ACC426,"121 S Broadway Ave Ste 719, Tyler, TX 75702",75702,Accurate Leak and Line - East Texas,Plumber,32.3500726,-95.3010624,No Outreach,12/30/1899,,,,Never Contacted,0,50,Low,50,75
CID-ALL427,"12572 County Rd 2293, Tyler, TX 75707",75707,Allen Steele Plumbing Co,Plumber,32.2967358,-95.2119666,No Outreach,12/30/1899,,,,Never Contacted,0,50,Low,50,75
CID-AME428,"1620 N Parkdale Dr, Tyler, TX 75702",75702,American Plumbing Co.,Plumber,32.3668413,-95.3232906,No Outreach,12/30/1899,,,,Never Contacted,0,50,Low,50,75
CID-BEN429,"15040 TX-110, Whitehouse, TX 75791",75791,Benjamin Franklin Plumbing Whitehouse,Plumber,32.260143,-95.2397384,No Outreach,12/30/1899,,,,Never Contacted,0,50,Low,50,75
CID-BLU430,"3708 Shiloh Rd, Tyler, TX 75707",75707,Blue Star Plumbers,Plumber,32.2960375,-95.2504281,No Outreach,12/30/1899,,,,Never Contacted,0,50,Low,50,75
CID-CAL431,"7581 FM 14, Tyler, TX 75706",75706,Calvary Plumbing,Plumber,32.3943154,-95.2846725,No Outreach,12/30/1899,,,,Never Contacted,0,50,Low,50,75
CID-CAR432,"18381 State Hwy 155, Flint, TX 75762",75762,Carroll Plumbing,Plumber,32.2139127,-95.4164791,No Outreach,12/30/1899,,,,Never Contacted,0,50,Low,50,75
CID-FIX433,"3708 Shiloh Rd Suite E1, Tyler, TX 75707",75707,Fix It Services,Plumber,32.2960375,-95.2504281,No Outreach,12/30/1899,,,,Never Contacted,0,50,Low,50,75
CID-FOU434,"3314 County Rd 415, Tyler, TX 75704",75704,"Fountain Plumbing, Inc",Plumber,32.3880122,-95.4679494,No Outreach,12/30/1899,,,,Never Contacted,0,50,Low,50,75
CID-ADV435,"4821 Trenton Dr, Tyler, TX 75703",75703,Advanced Plumbing Co,Plumber,32.2973945,-95.3130212,No Outreach,12/30/1899,,,,Never Contacted,0,50,Low,50,75
CID-CAL436,"N Poplar Ave, Tyler, TX 75702",75702,Caldwel Welding Supply Co.,Welder,32.353629,-95.2951538,No Outreach,12/30/1899,,,,Never Contacted,0,50,Low,50,75
CID-ELI437,"2221 TX-323 W Loop, Tyler, TX 75701",75701,Elite Auto Glass Of Tyler,Automotive,32.3041919,-95.3294347,No Outreach,12/30/1899,,,,Never Contacted,0,50,Low,50,75
CID-BWA438,"1130 E Northeast Loop 323, Tyler, TX 75708",75708,BWA Truck & Trailer LLC,Automotive,32.3882015,-95.2764639,No Outreach,12/30/1899,,,,Never Contacted,0,50,Low,50,75
CID-ALB439,"17968 Old Jacksonville Hwy, Flint, TX 75762",75762,Albright Steel Buildings,Welder,32.2190364,-95.3507344,No Outreach,12/30/1899,,,,Never Contacted,0,50,Low,50,75
CID-ACT440,"12441 State Highway 155 S, Tyler, TX 75703",75703,Action Autobody,Automotive,32.2994427,-95.3415846,No Outreach,12/30/1899,,,,Never Contacted,0,50,Low,50,75
CID-AUT441,"1205 E 5th St, Tyler, TX 75701",75701,AutoGlass Express,Automotive,32.3320903,-95.2869157,No Outreach,12/30/1899,,,,Never Contacted,0,50,Low,50,75
CID-BIG442,"1225 E 5th St, Tyler, TX 75701",75701,Big 5 Tire & Auto Service,Automotive,32.331999,-95.285874,No Outreach,12/30/1899,,,,Never Contacted,0,50,Low,50,75
CID-FER443,"3092 Old Henderson Hwy, Tyler, TX 75707",75707,Fernandez Auto Service LLC,Automotive,32.3374944,-95.2589565,No Outreach,12/30/1899,,,,Never Contacted,0,50,Low,50,75
CID-AIR444,"4431 Cantina Dr, Tyler, TX 75708",75708,Airgas Store,Welder,32.3844339,-95.2660617,No Outreach,12/30/1899,,,,Never Contacted,0,50,Low,50,75
CID-D&R445,"308 N Gillespie Ave, Jacksonville, TX 75766",75766,D&R WELDING,Welder,31.9640315,-95.2870935,No Outreach,12/30/1899,,,,Never Contacted,0,50,Low,50,75
CID-DAN446,"691 Sawmill Rd, Chandler, TX 75758",75758,Daniell Welding & Fabrication,Welder,32.3049411,-95.4718563,No Outreach,12/30/1899,,,,Never Contacted,0,50,Low,50,75
CID-EAR447,"2245 County Rd 316, Lindale, TX 75771",75771,Earth&Steel Construction & Fab LLC,Welder,32.4941148,-95.2915412,No Outreach,12/30/1899,,,,Never Contacted,0,50,Low,50,75
CID-EAS448,"107 Willingham Rd #3419, Whitehouse, TX 75791",75791,East Texas Welder Repair,Welder,32.2254679,-95.2285528,No Outreach,12/30/1899,,,,Never Contacted,0,50,Low,50,75
CID-A&4449,"5201 W Marshall Ave, Longview, TX 75604",75604,A & B Welding,Welder,32.5104367,-94.8122799,No Outreach,12/30/1899,,,,Never Contacted,0,50,Low,50,75
CID-AW4450,"424 Floy Lee Rd, Gilmer, TX 75645",75645,AW Welding and Fabrication,Welder,32.6987817,-94.9216497,No Outreach,12/30/1899,,,,Never Contacted,0,50,Low,50,75
CID-BAR451,"1381 E I 20 Access Rd, Longview, TX 75603",75603,"Bar H Welding, LLC",Welder,32.4347834,-94.7655441,No Outreach,12/30/1899,,,,Never Contacted,0,50,Low,50,75
CID-BRA452,"6013 FM 1404, Gilmer, TX 75645",75645,Brantley Welding & Fabrication,Welder,32.7287472,-94.9424379,No Outreach,12/30/1899,,,,Never Contacted,0,50,Low,50,75
CID-BIR453,"2206 Balsam St, Longview, TX 75605",75605,Bird Dog Plumbing LLC,Plumbing & HVAC,32.5307498,-94.7785362,No Outreach,12/30/1899,,,,Never Contacted,0,50,Low,50,75
CID-DAN454,"16371 County Road 452, Lindale, TX 75771",75771,Daniels Plumbing Pro LLC,Plumbing & HVAC,32.568454,-95.436837,No Outreach,12/30/1899,,,,Never Contacted,0,50,Low,50,75
CID-1ST001,"300 Beaulah St, Hawkins, TX 75765",75765,1st Rate Appliance Repair,Plumbing & HVAC,32.5901886,-95.2046902,No Outreach,12/30/1899,,,01/01/2025,Never Contacted,0,50,Low,50,75
CID-ALB456,"5918 Old Highway 80, Longview, TX 75604",75604,ALBERT GOETTLE PLUMBING,Plumbing & HVAC,32.5144977,-94.8274701,No Outreach,12/30/1899,,,,Never Contacted,0,50,Low,50,75
CID-ALD457,"12309 I 20 S Service Rd W, Hallsville, TX 75650",75650,Alden's Air & Appliance Repair,Plumbing & HVAC,32.5475743,-95.7834881,No Outreach,12/30/1899,,,,Never Contacted,0,50,Low,50,75
CID-APP458,"136 Gilmer Rd, Longview, TX 75604",75604,Appliance Repair Services,Plumbing & HVAC,32.50771,-94.768436,No Outreach,12/30/1899,,,,Never Contacted,0,50,Low,50,75
CID-ARR459,"4 Gum Valley Cir, Longview, TX 75602",75602,Arrow Plumbing,Plumbing & HVAC,32.4856175,-94.6987368,No Outreach,12/30/1899,,,,Never Contacted,0,50,Low,50,75
CID-ASH460,"1414 Gish Ln, Tyler, TX 75707",75707,Ashley's Truck Repair & Towing,Plumbing & HVAC,32.3357341,-95.2556054,No Outreach,12/30/1899,,,,Never Contacted,0,50,Low,50,75
CID-BAI461,"Kilgore, TX 75663",75663,Bailey Plumbing,Plumbing & HVAC,32.3891032,-94.8728956,No Outreach,12/30/1899,,,,Never Contacted,0,50,Low,50,75
CID-BAK462,"351 W Tyler St, Longview, TX 75601",75601,Baker Bros Plumbing,Plumbing & HVAC,32.4986905,-94.7463755,No Outreach,12/30/1899,,,,Never Contacted,0,50,Low,50,75
CID-EMM463,"1420 N Longview St, Kilgore, TX 75662",75662,Emmett's Plumbers,Plumbing & HVAC,32.398368,-94.8663173,No Outreach,12/30/1899,,,,Never Contacted,0,50,Low,50,75
CID-FAS464,"600 TX-323 S Loop, Tyler, TX 75702",75702,Fastenal Fulfillment Center,Manufacturing,32.358716,-95.34373,No Outreach,12/30/1899,,,,Never Contacted,0,50,Low,50,75
CID-TEX465,"16720 State Hwy 155 unit 304, Tyler, TX 75703",75703,Texas Native Metalworks,Welder,32.2383804,-95.4043464,No Outreach,12/30/1899,,,,Never Contacted,0,50,Low,50,75
CID-EAS466,"4097 US-271 S, Tyler, TX 75708",75708,East Texas Historical Fencing,Other,32.3839892,-95.279929,No Outreach,12/30/1899,,,,Never Contacted,0,50,Low,50,75
CID-STE467,"13041 State Highway 64 E, Tyler, TX 75707",75707,Steve's Window Cleaning,Other,32.3118639,-95.1916656,No Outreach,12/30/1899,,,,Never Contacted,0,50,Low,50,75
CID-ALL468,"202 N Broad St, Chandler, TX 75758",75758,"Allen's Appliance & Satellite Sales, Service LLC",Other,32.3067695,-95.4797843,No Outreach,12/30/1899,,,,Never Contacted,0,50,Low,50,75
CID-APP469,"1701 S High St, Longview, TX 75602",75602,Appliance ER,Other,32.4727688,-94.7425534,No Outreach,12/30/1899,,,,Never Contacted,0,50,Low,50,75
CID-BLU470,"15669 County Road 196, Tyler, TX 75703",75703,Blue Line Fence LLC,Other,32.252092,-95.4063963,No Outreach,12/30/1899,,,,Never Contacted,0,50,Low,50,75
CID-COB471,"600 E Houston St, Tyler, TX 75702",75702,Coburn's of Tyler,Plumbing & HVAC,32.3442025,-95.2954035,No Outreach,12/30/1899,,,,Never Contacted,0,50,Low,50,75
CID-CRE472,"2600 Robertson Rd, Tyler, TX 75701",75701,CREST Process Systems Inc.,Other,32.3324895,-95.3296944,No Outreach,12/30/1899,,,,Never Contacted,0,50,Low,50,75
CID-DON473,"6714 S Broadway Ave, Tyler, TX 75703",75703,Don's TV & Appliance Inc,Appliance,32.2760325,-95.3058806,No Outreach,12/30/1899,,,,Never Contacted,0,50,Low,50,75
CID-GAS474,"918 S SW Loop 323, Tyler, TX 75701",75701,Gas and Supply - Tyler,Welder,32.339072,-95.339554,No Outreach,12/30/1899,,,,Never Contacted,0,50,Low,50,75
CID-GOL475,"1908 W Erwin St, Tyler, TX 75702",75702,"Gold, Silver & Vintage Treasures",Retail,32.3501122,-95.3221494,No Outreach,12/30/1899,,,,Never Contacted,0,50,Low,50,75
CID-HAR476,"509 E Longview St, Arp, TX 75750",75750,Harold's Appliance Repair,Plumbing & HVAC,32.3498799,-95.3078488,No Outreach,12/30/1899,,,,Never Contacted,0,50,Low,50,75
CID-JAC477,"3813 SW Loop 323, Tyler, TX 75701",75701,Jack's Stereo,Other,32.3081822,-95.339781,No Outreach,12/30/1899,,,,Never Contacted,0,50,Low,50,75
CID-JLB478,"4240 N White Oak Rd, Gladewater, TX 75647",75647,JLB Plumbing,Plumbing & HVAC,32.5731315,-94.9019348,No Outreach,12/30/1899,,,,Never Contacted,0,50,Low,50,75
CID-LED479,"1526 W Marshall Ave, Longview, TX 75604",75604,Ledbetter Plumbing,Plumbing & HVAC,32.5049016,-94.7759356,No Outreach,12/30/1899,,,,Never Contacted,0,50,Low,50,75
CID-LIF480,"2107 Broussard St, Tyler, TX 75701",75701,Lifegas,Other,32.3007815,-95.3276022,No Outreach,12/30/1899,,,,Never Contacted,0,50,Low,50,75
CID-MAA481,"2110 Anthony Dr, Tyler, TX 75701",75701,Maaco Auto Body Shop & Painting,Automotive,32.301469,-95.3278181,No Outreach,12/30/1899,,,,Never Contacted,0,50,Low,50,75
CID-MC4482,"11152 County Road 1113, Tyler, TX 75709",75709,Mc Cown Engineering LLC,Other,32.2926054,-95.3513125,No Outreach,12/30/1899,,,,Never Contacted,0,50,Low,50,75
CID-MEL483,"2505 W NW Loop 323, Tyler, TX 75702",75702,Melvin Lewis Welding,Welder,32.3826538,-95.328587,No Outreach,12/30/1899,,,,Never Contacted,0,50,Low,50,75
CID-NAP484,"1003 W Cotton St, Longview, TX 75604",75604,"Napps Cooling, Heating & Plumbing",Plumbing & HVAC,32.4981981,-94.7608736,No Outreach,12/30/1899,,,,Never Contacted,0,50,Low,50,75
CID-NIC485,"Fm 14, Tyler, TX 75708",75708,Nick's Trailer Hitch Shop,Other,32.4122894,-95.2787594,No Outreach,12/30/1899,,,,Never Contacted,0,50,Low,50,75
CID-OMA486,"2517 E Commerce St, Tyler, TX 75702",75702,Omar Colision Repaircenter,Plumbing & HVAC,32.3557206,-95.2700355,No Outreach,12/30/1899,,,,Never Contacted,0,50,Low,50,75
CID-PAY487,"2000 S Eastman Rd, Longview, TX 75602",75602,Payne Mechanical Services,Other,32.470966,-94.7068064,No Outreach,12/30/1899,,,,Never Contacted,0,50,Low,50,75
CID-PEP488,"3616 S Broadway Ave, Tyler, TX 75701",75701,Pep Boys Auto Service & Tires,Automotive,32.3090048,-95.2997898,No Outreach,12/30/1899,,,,Never Contacted,0,50,Low,50,75
CID-PRE489,"3810 Timms St, Tyler, TX 75701",75701,Preventative,Other,32.3062003,-95.3300386,No Outreach,12/30/1899,,,,Never Contacted,0,50,Low,50,75
CID-PUR490,"2565 W Northwest Loop 323, Tyler, TX 75702",75702,Purvis Industries,Other,32.3821704,-95.3293381,No Outreach,12/30/1899,,,,Never Contacted,0,50,Low,50,75
CID-RAC491,"2318 TX-323 E Loop, Tyler, TX 75701",75701,RAC Rent A Center,Other,32.3122274,-95.2721374,No Outreach,12/30/1899,,,,Never Contacted,0,50,Low,50,75
CID-RIC492,"4801 Troup Hwy, Tyler, TX 75703",75703,Ricoh USA,Other,32.2990821,-95.2669745,No Outreach,12/30/1899,,,,Never Contacted,0,50,Low,50,75
CID-ROY493,"3300 TX-281 W Loop, Longview, TX 75604",75604,Royal Plumbing and Construction LLC,Plumbing & HVAC,32.4983892,-94.7803884,No Outreach,12/30/1899,,,,Never Contacted,0,50,Low,50,75
CID-SEA494,"3510 McCann Rd, Longview, TX 75605",75605,Sears Appliance Repair,Plumbing & HVAC,32.5392701,-94.7519256,No Outreach,12/30/1899,,,,Never Contacted,0,50,Low,50,75
CID-SPE495,"9186 Hwy 64, Tyler, TX 75707",75707,Specialty Auto Body,Automotive,32.320161,-95.2155351,No Outreach,12/30/1899,,,,Never Contacted,0,50,Low,50,75
CID-TEX496,"1991 US Highway 175 W, Jacksonville, TX 75766",75766,Texas Vessels & Fabrication LLC,Manufacturing,31.9848039,-95.3056685,No Outreach,12/30/1899,,,,Never Contacted,0,50,Low,50,75
CID-TNT497,"20057 TX-31 E, Brownsboro, TX 75756",75756,TNT Custom Welding,Welder,32.2981932,-95.5194437,No Outreach,12/30/1899,,,,Never Contacted,0,50,Low,50,75
CID-TYL498,"2008 Broussard St, Tyler, TX 75701",75701,Tyler Auto,Automotive,32.3001324,-95.3264768,No Outreach,12/30/1899,,,,Never Contacted,0,50,Low,50,75
CID-TYL499,"829 Barclay Dr, Tyler, TX 75703",75703,Tyler Deck and Fence,Other,32.2997918,-95.311385,No Outreach,12/30/1899,,,,Never Contacted,0,50,Low,50,75
CID-TYL500,"414 N Bois d'Arc Ave, Tyler, TX 75702",75702,Tyler Recycling Collection Center,Other,32.3541141,-95.303124,No Outreach,12/30/1899,,,,Never Contacted,0,50,Low,50,75
CID-WHO501,"3401 W Shaw St, Tyler, TX 75701",75701,"Wholesale Electric Supply Co., Inc.",Electrical,32.3366833,-95.3378853,No Outreach,12/30/1899,,,,Never Contacted,0,50,Low,50,75
CID-ZAV502,"1507 E Front St, Tyler, TX 75702",75702,Zavalas Auto Detail,Automotive,32.3460938,-95.2827501,No Outreach,12/30/1899,,,,Never Contacted,0,50,Low,50,75
CID-GUI503,"8966 S Broadway Ave, Tyler, TX 75703",75703,Guitar Center,Other,32.2481178,-95.3046146,No Outreach,12/30/1899,,,,Never Contacted,0,50,Low,50,75
CID-HOB504,"4566 S Broadway Ave, Tyler, TX 75703",75703,HobbyTown,Other,32.2999833,-95.2998572,No Outreach,12/30/1899,,,,Never Contacted,0,50,Low,50,75
CID-NAT505,"13240 TX-110, Tyler, TX 75707",75707,National Wholesale,Other,32.2865486,-95.252715,No Outreach,12/30/1899,,,,Never Contacted,0,50,Low,50,75
CID-SRS506,"10145 State Highway 64 E, Tyler, TX 75707",75707,SRS Building Products,Other,32.3319103,-95.2421669,No Outreach,12/30/1899,,,,Never Contacted,0,50,Low,50,75
CID-WIN507,"State Highway 110, Whitehouse, TX 75791",75791,Winston Water Cooler LTD,Other,32.2370944,-95.2284676,No Outreach,12/30/1899,,,,Never Contacted,0,50,Low,50,75
CID-A&5508,"301 TX-31 W, Kilgore, TX 75662",75662,A & K Appliance,Other,32.3960845,-94.8831141,No Outreach,12/30/1899,,,,Never Contacted,0,50,Low,50,75
CID-AP5509,"4547 Cantina Dr, Tyler, TX 75708",75708,A Plus Commercial Kitchens,Other,32.3843195,-95.2657393,No Outreach,12/30/1899,,,,Never Contacted,0,50,Low,50,75
CID-ALL510,"3510 US-79 N, Henderson, TX 75654",75654,All American Appliance,Other,32.1194195,-94.8297014,No Outreach,12/30/1899,,,,Never Contacted,0,50,Low,50,75
CID-ART511,"724 Bellwood Golf Club Rd, Tyler, TX 75709",75709,Artmire's Urban Forestry & Tree Service,Other,32.3423023,-95.3592606,No Outreach,12/30/1899,,,,Never Contacted,0,50,Low,50,75
CID-BAR512,"1902 Capital Dr, Tyler, TX 75701",75701,Barsco,Other,32.2966117,-95.3269302,No Outreach,12/30/1899,,,,Never Contacted,0,50,Low,50,75
CID-BES513,"5514 S Broadway Ave, Tyler, TX 75703",75703,Best Buy,Other,32.2882236,-95.3010951,No Outreach,12/30/1899,,,,Never Contacted,0,50,Low,50,75
CID-CAL514,"3889 cr389, Tyler, TX 75705",75705,Calvin's welder repair,Welding,32.3847296,-95.1543508,No Outreach,12/30/1899,,,,Never Contacted,0,50,Low,50,75
CID-CAN515,"228 Tournament Rd, Tyler, TX 75702",75702,Cantley's Tv Service,Other,32.3488694,-95.3382793,No Outreach,12/30/1899,,,,Never Contacted,0,50,Low,50,75
CID-CEF516,"11812 State Hwy 64, Tyler, TX 75704",75704,CEFCO Convenience Store,Other,32.3580762,-95.3619589,No Outreach,12/30/1899,,,,Never Contacted,0,50,Low,50,75
CID-COR517,"3468 W Erwin St, Tyler, TX 75702",75702,Core Lumber LLC,Other,32.3519149,-95.3393364,No Outreach,12/30/1899,,,,Never Contacted,0,50,Low,50,75
CID-COW518,"1529 E Northeast Loop 323, Tyler, TX 75708",75708,Cowtown Materials,Other,32.3868294,-95.2688596,No Outreach,12/30/1899,,,,Never Contacted,0,50,Low,50,75
CID-DAL519,"8856 Jennifer Dr, Tyler, TX 75703",75703,Daly Electronics,Other,32.1998263,-95.2550691,No Outreach,12/30/1899,,,,Never Contacted,0,50,Low,50,75
CID-ES5520,"2324 E 5th St, Tyler, TX 75701",75701,E Smooth Professional Hand Car Wash and detailing Shop Express,Other,32.3325527,-95.271709,No Outreach,12/30/1899,,,,Never Contacted,0,50,Low,50,75
CID-EDW521,"802 TX-323 S Loop, Tyler, TX 75701",75701,Edwards Paint & Body,Other,32.3409145,-95.3391406,No Outreach,12/30/1899,,,,Never Contacted,0,50,Low,50,75
CID-ELI522,"3404 N Northeast Loop 323, Tyler, TX 75708",75708,Elite Collison Center,Other,32.3852603,-95.2681581,No Outreach,12/30/1899,,,,Never Contacted,0,50,Low,50,75
CID-ELL523,"3706 Frankston Hwy, Tyler, TX 75701",75701,Elliott Electric Supply,Electrical,32.3088873,-95.3332653,No Outreach,12/30/1899,,,,Never Contacted,0,50,Low,50,75
CID-ESP524,"1858 Young Pl, Tyler, TX 75708",75708,Espinoza's Paint & Body Shop,Other,32.3797089,-95.2810936,No Outreach,12/30/1899,,,,Never Contacted,0,50,Low,50,75
CID-EXX525,"1222 TX-323 W Loop, Tyler, TX 75701",75701,Exxon,Other,32.3031444,-95.3148654,No Outreach,12/30/1899,,,,Never Contacted,0,50,Low,50,75
CID-FJR526,"10554 State Highway 64 E, Tyler, TX 75707",75707,FJR Paint & Body,Auto,32.3273064,-95.2360482,No Outreach,12/30/1899,,,,Never Contacted,0,60,Medium,85,102.5
CID-FUS527,"105 Berry Ln, Jacksonville, TX 75766",75766,FUSSELL APPLIANCE,Other,31.9660347,-95.2492413,No Outreach,12/30/1899,,,,Never Contacted,0,50,Low,50,75
CID-GAM528,"4007 S Broadway Ave, Tyler, TX 75701",75701,Game X Change,Other,32.3071591,-95.3022562,No Outreach,12/30/1899,,,,Never Contacted,0,50,Low,50,75
CID-GAS529,"1677 US-69 N, Mineola, TX 75773",75773,Gas and Supply - Mineola,Other,32.6429024,-95.4885541,No Outreach,12/30/1899,,,,Never Contacted,0,50,Low,50,75
CID-GIL530,"1645 W Broad St, Mineola, TX 75773",75773,Gilbreath Welding & Services,Welder,32.6697109,-95.5133009,No Outreach,12/30/1899,,,,Never Contacted,0,50,Low,50,75
CID-HAL531,"3211 Towne Way Dr, Tyler, TX 75701",75701,Hall Collision Center,Automotive,32.31587,-95.3394785,No Outreach,12/30/1899,,,,Never Contacted,0,50,Low,50,75
CID-HAM532,"16600 Hwy 155 S Suite 4012, Tyler, TX 75703",75703,Hammered Out Welding Academy,Welder,32.2403346,-95.4030283,No Outreach,12/30/1899,,,,Never Contacted,0,50,Low,50,75
CID-HAN533,"611 VZ County Road 4907, Ben Wheeler, TX 75754",75754,Hanna's Custom Welding,Welder,32.4754664,-95.6993078,No Outreach,12/30/1899,,,,Never Contacted,0,50,Low,50,75
CID-HER534,"FM 1803, Athens, TX 75752",75752,Herrington Welding,Welder,32.2858764,-95.714084,No Outreach,12/30/1899,,,,Never Contacted,0,50,Low,50,75
CID-HIL535,"8713 FM-346, Whitehouse, TX 75791",75791,Hilltop Concrete,Other,32.221562,-95.2562131,No Outreach,12/30/1899,,,,Never Contacted,0,50,Low,50,75
CID-INS536,"300 Stanford St, Tyler, TX 75701",75701,"Insco Distributing, Inc.",Other,32.3156729,-95.2983833,No Outreach,12/30/1899,,,,Never Contacted,0,50,Low,50,75
CID-IRO537,"15327 County Road 2123, Whitehouse, TX 75791",75791,"Iron Hill Services, LLC",Welder,32.2550258,-95.2257167,No Outreach,12/30/1899,,,,Never Contacted,0,50,Low,50,75
CID-J&5538,"16164 Knob Hill Dr, Tyler, TX 75703",75703,J & R Welding,Welder,32.3003429,-95.4383525,No Outreach,12/30/1899,,,,Never Contacted,0,50,Low,50,75
CID-JAS539,"209 US-79 N, Henderson, TX 75654",75654,Jason's plumbing & Specialty services LLC,Plumbing & HVAC,32.1531365,-94.7846128,No Outreach,12/30/1899,,,,Never Contacted,0,50,Low,50,75
CID-JB5540,"10297 County Rd 2188, Whitehouse, TX 75791",75791,JB Construction & Welding,Welder,32.2408314,-95.2409237,No Outreach,12/30/1899,,,,Never Contacted,0,50,Low,50,75
CID-JOH541,"114 N Gaston Ave, Tyler, TX 75702",75702,John Deer,Other,32.3511236,-95.3171836,No Outreach,12/30/1899,,,,FOLLOW-UP REQUIRED,0.2,50,Low,55,82.5
CID-JOH542,"1074 Evergreen Rd, Gilmer, TX 75645",75645,John Johnson Welding Services,Welder,32.6618488,-94.9565081,No Outreach,12/30/1899,,,,Never Contacted,0,50,Low,50,75
CID-JOH543,"2131 S Green St, Longview, TX 75602",75602,Johnson Service Center,Other,32.4661161,-94.7338879,No Outreach,12/30/1899,,,,Never Contacted,0,50,Low,50,75
CID-JON544,"1614 W Erwin St, Tyler, TX 75702",75702,Jones Auto,Automotive,32.3502727,-95.3186773,No Outreach,12/30/1899,,,,Never Contacted,0,50,Low,50,75
CID-JON545,"3235 SW Loop 323, Tyler, TX 75701",75701,Jones Paint & Body Shop,Other,32.3104354,-95.3427191,No Outreach,12/30/1899,,,,Never Contacted,0,50,Low,50,75
CID-JRO546,"319 W Harrison Rd, Longview, TX 75604",75604,JRowe Plumbing,Plumbing & HVAC,32.4974558,-94.7991001,No Outreach,12/30/1899,,,,Never Contacted,0,50,Low,50,75
CID-K&5547,"581 Elm Rd, Gilmer, TX 75645",75645,K & G Plumbing,Plumbing & HVAC,32.6829491,-94.9766836,No Outreach,12/30/1899,,,,Never Contacted,0,50,Low,50,75
CID-K55005,"5119 State Highway 64, Ben Wheeler, TX 75754",75754,K5 Welding & Fabrication,Welder,32.395079,-95.5627,No Outreach,12/30/1899,,,,Never Contacted,0,50,Low,50,75
CID-LAN549,"750 Van Zandt, Co Rd 4905, Ben Wheeler, TX 75754",75754,Landaverde's Welding,Welder,32.433429,-95.5956638,No Outreach,12/30/1899,,,,Never Contacted,0,50,Low,50,75
CID-LAP550,"107 TX-110, Whitehouse, TX 75791",75791,Laptops For Less,Other,32.2278017,-95.2267083,No Outreach,12/30/1899,,,,Never Contacted,0,50,Low,50,75
CID-LIN551,"205 S Main St, Lindale, TX 75771",75771,Lindale Area Chamber of Commerce,Other,32.514157,-95.4097656,No Outreach,12/30/1899,,,,Never Contacted,0,50,Low,50,75
CID-LIN552,"7064 TX-42, Kilgore, TX 75662",75662,Linde Welding Gas & Equipment Center,Other,32.4360192,-94.8626392,No Outreach,12/30/1899,,,,Never Contacted,0,50,Low,50,75
CID-LON553,"303 TX-281 W Loop, Longview, TX 75605",75605,Longview Appliance Repair,Plumbing & HVAC,32.5353782,-94.7170268,No Outreach,12/30/1899,,,,Never Contacted,0,50,Low,50,75
CID-LOW554,"5720 S Broadway Ave, Tyler, TX 75703",75703,Lowe's Home Improvement,Retail,32.2858051,-95.3014293,No Outreach,12/30/1899,,,,Never Contacted,0,50,Low,50,75
CID-MAS555,"5004 FM 2767, Tyler, TX 75708",75708,Master Halco,Other,32.3546536,-95.257678,Initial Contact,12/30/1899,,,,Never Contacted,0,50,Low,50,75
CID-MAY556,"Jim Hogg Rd, Lindale, TX 75771",75771,Mayne Welding,Welder,32.5037165,-95.3937048,No Outreach,12/30/1899,,,,Never Contacted,0,50,Low,50,75
CID-MB5557,"2611 US Highway 271, Tyler, TX 75708",75708,Mb & G Fabrication,Manufacturing,32.3776412,-95.2858924,No Outreach,12/30/1899,,,,Never Contacted,0,50,Low,50,75
CID-MIT558,"3539 US-271, Tyler, TX 75708",75708,Mitchell Welding Supply,Welder,32.3800687,-95.2807402,No Outreach,12/30/1899,,,,Never Contacted,0,50,Low,50,75
CID-MOB559,"2121 Old Henderson Hwy, Tyler, TX 75702",75702,Mobile Communications America,Other,32.3474582,-95.275549,No Outreach,12/30/1899,,,,Never Contacted,0,50,Low,50,75
CID-MOD560,"3616 River Rd, Kilgore, TX 75662",75662,Modisette Welding & Supply Corporation,Welder,32.4409454,-94.8761139,No Outreach,12/30/1899,,,,Never Contacted,0,50,Low,50,75
CID-MOO561,"3226 Shiloh Rd, Tyler, TX 75707",75707,Moore Supply Co.,Other,32.2959549,-95.2579096,No Outreach,12/30/1899,,,,Never Contacted,0,50,Low,50,75
CID-MOO562,"4220 Timms St, Tyler, TX 75701",75701,"Moose Auto Glass, Inc.",Automotive,32.3049894,-95.3300961,No Outreach,12/30/1899,,,,Never Contacted,0,50,Low,50,75
CID-MOR563,"2006 W Erwin St, Tyler, TX 75702",75702,Morales Paint & Body Shop,Other,32.3498489,-95.3231987,No Outreach,12/30/1899,,,,Never Contacted,0,50,Low,50,75
CID-NEX564,"911 W Loop 281, Longview, TX 75604",75604,Next Plumbing & Heating,Plumbing & HVAC,32.5388746,-94.7652023,No Outreach,12/30/1899,,,,Never Contacted,0,50,Low,50,75
CID-NOR565,"12326 State Highway 31 W, Tyler, TX 75709",75709,Northwest Collision Center,Automotive,32.3386108,-95.3725507,Interested,01/14/2026,,,,Never Contacted,0,50,Low,50,75
CID-OFF566,"4329 Old Bullard Rd, Tyler, TX 75703",75703,Office Depot,Other,32.3020919,-95.3060117,No Outreach,12/30/1899,,,,Never Contacted,0,50,Low,50,75
CID-PAL567,"206 Broad St, Chandler, TX 75758",75758,"Palady Air Services, LLC",Plumbing & HVAC,32.3069019,-95.4798737,No Outreach,12/30/1899,,,,Never Contacted,0,50,Low,50,75
CID-PLU568,"14630 State Hwy 155 S, Tyler, TX 75703",75703,Plumbings at The Home Depot,Plumbing & HVAC,32.2950183,-95.3480354,No Outreach,12/30/1899,,,,Never Contacted,0,50,Low,50,75
CID-PON569,"Birchwood Path, Holly Lake Ranch, TX 75765",75765,Ponder Appliance Repair,Plumbing & HVAC,32.7185089,-95.1721715,No Outreach,12/30/1899,,,,Never Contacted,0,50,Low,50,75
CID-POW570,"19248 Hillside Dr, Tyler, TX 75703",75703,Power Clean,Electrical,32.1985752,-95.2540359,No Outreach,12/30/1899,,,,Never Contacted,0,50,Low,50,75
CID-PUR571,"605 Chase Dr, Tyler, TX 75701",75701,Pure Excellence Training Academy LLC,Other,32.3074044,-95.3073424,No Outreach,12/30/1899,,,,Never Contacted,0,50,Low,50,75
CID-QUA572,"205 W Locust St, Tyler, TX 75702",75702,Quantum Photonics,Other,32.3530105,-95.3020182,No Outreach,12/30/1899,,,,Never Contacted,0,50,Low,50,75
CID-R.D573,"11681 US Highway 69 N, Tyler, TX 75706",75706,R.D. Tires & Welding Services,Automotive,32.4342206,-95.3674778,No Outreach,12/30/1899,,,,Never Contacted,0,50,Low,50,75
CID-REA574,"4306 Bob O Link Rd, Gilmer, TX 75645",75645,Reardon Plumbing,Plumbing & HVAC,32.6713016,-94.9243779,No Outreach,12/30/1899,,,,Never Contacted,0,50,Low,50,75
CID-RED575,"285 Private Road 8612, Ben Wheeler, TX 75754",75754,Red Kingdom Plumbing LLC,Plumbing & HVAC,32.4280098,-95.6096205,No Outreach,12/30/1899,,,,Never Contacted,0,50,Low,50,75
CID-REN576,"4097 US-271, Tyler, TX 75708",75708,Renegade Custom Welding,Welder,32.3839892,-95.279929,No Outreach,12/30/1899,,,,Never Contacted,0,50,Low,50,75
CID-REP577,"12920 FM 2767, Tyler, TX 75708",75708,Republic Services Greenwood Farms Landfill,Other,32.3724491,-95.1883372,No Outreach,12/30/1899,,,,Never Contacted,0,50,Low,50,75
CID-RIP578,"W 2nd St, Chandler, TX 75758",75758,Riprock Appliance Repair,Plumbing & HVAC,32.2319094,-95.0502733,No Outreach,12/30/1899,,,,Never Contacted,0,50,Low,50,75
CID-ROB579,"12604 State Highway 155 S, Tyler, TX 75703",75703,Robertson Automotive,Automotive,32.2994348,-95.3433588,No Outreach,12/30/1899,,,,Never Contacted,0,50,Low,50,75
CID-ROS580,"1074 Merrill Lake Rd, Longview, TX 75604",75604,Ross Plumbinng Llc.,Plumbing & HVAC,32.4919712,-94.8772101,No Outreach,12/30/1899,,,,Never Contacted,0,50,Low,50,75
CID-RUD581,"11014 FM 3226, Arp, TX 75750",75750,Rudd Manufacturing and Custom Welding,Welder,32.3185722,-95.1372965,No Outreach,12/30/1899,,,,Never Contacted,0,50,Low,50,75
