Company ID,Address,Zip Code,Company Name,Industry,Latitude,Longitude,Last Outcome,Last Outreach Date,Days Since Last Contact,Next Step Due Countdown,Next Steps Due Date,Contact Status,Close Probability,Priority Score,UrgencyBand,Urgency Score,Totals
CID-050500,"402 S Walnut St, Winnsboro, TX 75494",75494,10x Construction,Construction,32.9536953,-95.2896481,Follow-Up,01/13/2026,24,-10,01/27/2026,Interested (Warm),0.2,70,Medium,65,102
CID-1ST001,"300 Beaulah St, Hawkins, TX 75765",75765,1st Rate Appliance Repair,Plumbing,32.5901886,-95.2046902,Not Contacted,,,30,03/08/2026,Cold,0,50,High,85,39
CID-2M2002,"4064 S Broadway Ave, Tyler, TX 75701",75701,2M Automotive,Automotive,32.305281,-95.2989375,Not Contacted,,,30,03/08/2026,Cold,0,70,High,85,42.6
CID-360867,"611 S Trade Days Blvd, Canton, TX 75103",75103,360 Metal Buildings,Metal Fabrication,32.55213547,-95.8625412,Not Contacted,,,30,03/08/2026,Cold,0,90,High,85,46.2
CID-643064,"12367 State Highway 64 W, Tyler, TX 75704",75704,64 West Building Materials,Construction,32.3583187,-95.3720415,Disqualified,11/14/2025,84,-84,11/14/2025,Disqualified,0,21,Low,25,72.6
CID-903903254,"13872 FM 14, Tyler, TX 75706",75706,903 HVAC,Construction,32.4659231,-95.2831766,Not Contacted,,,30,03/08/2026,Cold,0,70,High,85,42.6
CID-903903333,"330 S Vaughn Ave, Tyler, TX 75702",75702,903 Plumbing,Plumbing,32.3477823,-95.3372541,Initial Contact,12/23/2025,45,-15,01/22/2026,Interested (Warm),0.2,50,Low,25,90
CID-A&4449,"5201 W Marshall Ave, Longview, TX 75604",75604,A & B Welding,Welding,32.5104367,-94.8122799,Not Contacted,,,30,03/08/2026,Cold,0,50,High,85,42.6
CID-A&1104,"510 Limerick St, Tyler, TX 75703",75703,"A & J Roofinf, Construction",Construction,32.2341382,-95.3511884,Interested (Warm),11/12/2025,86,-72,11/26/2025,Interested (Warm),0.4,21,Low,25,72.6
CID-A&5508,"301 TX-31 W, Kilgore, TX 75662",75662,A & K Appliance,Other,32.3960845,-94.8831141,Not Contacted,,,30,03/08/2026,Cold,0,50,High,85,39
CID-AP5509,"4547 Cantina Dr, Tyler, TX 75708",75708,A Plus Commercial Kitchens,Other,32.3843195,-95.2657393,Not Contacted,,,30,03/08/2026,Cold,0,50,High,85,39
CID-AP1152,"116 Leisure Ln, Whitehouse, TX 75791",75791,A Plus Plumbing,Construction,32.2099877,-95.2154959,Not Contacted,,,30,03/08/2026,Cold,0,70,High,85,42.6
CID-A-11153,"814 Jack Brown, Whitehouse, TX 75791",75791,A-10 construction & Land Improvement,Construction,32.2162643,-95.2122961,Not Contacted,,,30,03/08/2026,Cold,0,70,High,85,42.6
CID-A-Z154,"15632 TX-110, Whitehouse, TX 75791",75791,A-Z Roofing,Construction,32.2525081,-95.237349,Not Contacted,,,30,03/08/2026,Cold,0,70,High,85,42.6
CID-A/C395,"2930 County Rd 2347, Tyler, TX 75701",75701,A/C Contractors,HVAC,32.3509994,-95.2631323,Not Contacted,,,30,03/08/2026,Cold,0,70,High,85,42.6
CID-A&A313,"320 S Beckham Ave, Tyler, TX 75702",75702,A&A Auto Service,Automotive,32.3475639,-95.2940208,Not Contacted,,,30,03/08/2026,Cold,0,70,High,85,42.6
CID-A&W105,"5604 Old Bullard Rd, Tyler, TX 75703",75703,A&W Hill Roofing,Construction,32.2439355,-95.3195775,Interested (Warm),11/12/2025,86,-72,11/26/2025,Interested (Warm),0.4,21,Low,25,72.6
CID-A11001,"5117 Atlanta Ave, Tyler, TX 75703",75703,A1 Quality Roofing,Construction,32.292754,-95.3018318,Not Contacted,,,30,03/08/2026,Cold,0,70,High,85,42.6
CID-AAA635,"13786 Harvey Rd, Tyler, TX 75706",75706,AAA Sanitation,Other,32.2883351,-95.3057495,Disqualified,11/26/2025,72,-72,11/26/2025,Disqualified,0,15,Low,25,69
CID-AAR014,"18410 FM 2767, Winona, TX 75792",75792,AARON MCGAUGHEY,Metal Fabrication,32.3812614,-95.0955328,Not Contacted,,,30,03/08/2026,Cold,0,90,High,85,46.2
CID-ABC314,"306 N NW Loop 323, Tyler, TX 75701",75701,ABC Auto Parts,Automotive,32.3565691,-95.343873,Not Contacted,,,30,03/08/2026,Cold,0,70,High,85,42.6
CID-ABC339,"3307 Chandler Hwy, Tyler, TX 75702",75702,ABC Home & Commercial Services,Construction,32.3467519,-95.3369672,Initial Contact,01/05/2026,32,-2,02/04/2026,Interested (Warm),0.2,70,Low,25,102
CID-ABC156,"1802 Shiloh Rd, Tyler, TX 75703",75703,ABCO Roofing & Siding,Construction,32.2955021,-95.2806672,Not Contacted,,,30,03/08/2026,Cold,0,70,High,85,42.6
CID-ABL082,"12204 County Rd 1114, Tyler, TX 75709",75709,ABL Services,Metal Fabrication,32.3093318,-95.3381473,Not Contacted,,,30,03/08/2026,Cold,0,90,High,85,46.2
CID-ACC345,"12406 SH 155 S, Tyler, TX 75703",75703,Access 2 Mobility,Automotive,32.2857726,-95.3310084,Initial Contact,12/29/2025,39,-9,01/28/2026,Interested (Warm),0.2,70,Low,25,102
CID-ACC426,"121 S Broadway Ave Ste 719, Tyler, TX 75702",75702,Accurate Leak and Line - East Texas,Plumbing,32.3500726,-95.3010624,Not Contacted,,,30,03/08/2026,Cold,0,50,High,85,39
CID-ACE396,"15330 County Rd 196, Tyler, TX 75703",75703,Ace Air Conditioning,HVAC,32.2580591,-95.3853081,Not Contacted,,,30,03/08/2026,Cold,0,70,High,85,42.6
CID-ACT440,"12441 State Highway 155 S, Tyler, TX 75703",75703,Action Autobody,Automotive,32.2994427,-95.3415846,Not Contacted,,,30,03/08/2026,Cold,0,70,High,85,42.6
CID-ADK157,"3115 San Jacinto Dr, Tyler, TX 75701",75701,Adkins Electric Inc,Electrical,32.3143785,-95.320137,Not Contacted,,,30,03/08/2026,Cold,0,50,High,85,42
CID-ADM139,"2540 County Road 376, Tyler, TX 75708",75708,Admire Roofing,Construction,32.3775075,-95.2717602,Not Contacted,,,30,03/08/2026,Cold,0,70,High,85,42.6
CID-ADV435,"4821 Trenton Dr, Tyler, TX 75703",75703,Advanced Plumbing Co,Plumbing,32.2973945,-95.3130212,Not Contacted,,,30,03/08/2026,Cold,0,50,High,85,39
CID-ADV091,"16678 State Hwy 155 Suite 300A, Tyler, TX 75703",75703,Advantage Roofing,Construction,32.467864,-95.414359,Interested (Warm),11/11/2025,87,-73,11/25/2025,Interested (Warm),0.4,21,Low,25,72.6
CID-AEG370,"2601 Network Blvd #102, Frisco, TX 75034",75034,Aegis Therapy,Other,33.101736,-96.827312,Initial Contact,12/12/2025,56,-26,01/11/2026,Interested (Warm),0.2,50,Low,25,90
CID-AFF110,"12379 County Rd 2175, Whitehouse, TX 75791",75791,Affordable Seamless Gutters,Roofing,32.2031344,-95.2059803,Not Contacted,,,30,03/08/2026,Cold,0,60,High,85,40.8
CID-AIM138,"15385 TX-110, Whitehouse, TX 75791",75791,AIM Roofing,Construction,32.256107,-95.2369048,Not Contacted,,,30,03/08/2026,Cold,0,70,High,85,42.6
CID-AIR397,"104 Jones St, Chandler, TX 75758",75758,Air Chandler Heating & Cooling,HVAC,32.3065665,-95.4785594,Not Contacted,,,30,03/08/2026,Cold,0,70,High,85,42.6
CID-AIR398,"2903 Crestview Ave, Tyler, TX 75701",75701,Air Comfort Specialists,HVAC,32.3173579,-95.2965752,Not Contacted,,,30,03/08/2026,Cold,0,70,High,85,42.6
CID-AIR634,"12679 FM 3311, Tyler, TX 75708",75708,Air Rover,HVAC,32.4073961,-95.2057909,Not Interested,11/20/2025,78,102,05/19/2026,Disqualified,0,21,Low,25,22.6
CID-AIR399,"2221 W SW Loop 323 #103a, Tyler, TX 75701",75701,Aire Serv of Smith County,HVAC,32.3051393,-95.3293599,Not Contacted,,,30,03/08/2026,Cold,0,70,High,85,42.6
CID-AIR444,"4431 Cantina Dr, Tyler, TX 75708",75708,Airgas Store,Welding,32.3844339,-95.2660617,Not Contacted,,,30,03/08/2026,Cold,0,50,High,85,42.6
CID-AIR422,"3844 Lamb Dr, Tyler, TX 75709",75709,"AirPro Elite AC & Heating, LLC",HVAC,32.3156757,-95.3523568,Not Contacted,,,30,03/08/2026,Cold,0,70,High,85,42.6
CID-ALA090,"2206 Thompson Ln, Tyler, TX 75704",75704,Alan Fielding Electric,Electrical,32.3679646,-95.3596878,Not Contacted,,,30,03/08/2026,Cold,0,50,High,85,42
CID-ALB456,"5918 Old Highway 80, Longview, TX 75604",75604,ALBERT GOETTLE PLUMBING,Plumbing,32.5144977,-94.8274701,Not Contacted,,,30,03/08/2026,Cold,0,50,High,85,39
CID-ALB439,"17968 Old Jacksonville Hwy, Flint, TX 75762",75762,Albright Steel Buildings,Welding,32.2190364,-95.3507344,Not Contacted,,,30,03/08/2026,Cold,0,50,High,85,42.6
CID-ALD457,"12309 I 20 S Service Rd W, Hallsville, TX 75650",75650,Alden's Air & Appliance Repair,Plumbing,32.5475743,-95.7834881,Not Contacted,,,30,03/08/2026,Cold,0,50,High,85,39
CID-ALI280,"631 TX-323 S Loop, Tyler, TX 75702",75702,Alignment King,Automotive,32.3434907,-95.2676605,Not Contacted,,,30,03/08/2026,Cold,0,70,High,85,42.6
CID-ALL510,"3510 US-79 N, Henderson, TX 75654",75654,All American Appliance,Other,32.1194195,-94.8297014,Not Contacted,,,30,03/08/2026,Cold,0,50,High,85,39
CID-ALL015,"4425 DC Dr A, Tyler, TX 75701",75701,All Star Fabrication Inc.,Metal Fabrication,32.3007439,-95.3253438,Not Interested,01/22/2026,15,165,07/21/2026,Disqualified,0,90,Medium,65,64
CID-ALL255,"Tyler, TX 75701",75701,All-N-One Remodeling,Construction,32.3243856,-95.2997959,Not Contacted,,,30,03/08/2026,Cold,0,70,High,85,42.6
CID-ALL427,"12572 County Rd 2293, Tyler, TX 75707",75707,Allen Steele Plumbing Co,Plumbing,32.2967358,-95.2119666,Not Contacted,,,30,03/08/2026,Cold,0,50,High,85,39
CID-ALL468,"202 N Broad St, Chandler, TX 75758",75758,"Allen's Appliance & Satellite Sales, Service LLC",Other,32.3067695,-95.4797843,Not Contacted,,,30,03/08/2026,Cold,0,50,High,85,39
CID-ALL618,"3800 Paluxy Dr, Tyler, TX 75703",75703,Allied Truss Texas,Other,32.3072829,-95.2779129,Not Contacted,,,30,03/08/2026,Cold,0,50,High,85,39
CID-AME016,"Bullard, TX 75757",75757,American Plasti-Plate Corporation,Metal Fabrication,32.1398804,-95.320229,Not Contacted,,,30,03/08/2026,Cold,0,90,High,85,46.2
CID-AME428,"1620 N Parkdale Dr, Tyler, TX 75702",75702,American Plumbing Co.,Plumbing,32.3668413,-95.3232906,Not Contacted,,,30,03/08/2026,Cold,0,50,High,85,39
CID-AME158,"6200 Troup Hwy, Tyler, TX 75707",75707,American Standard Inc,Construction,32.2902811,-95.2534269,Not Contacted,,,30,03/08/2026,Cold,0,70,High,85,42.6
CID-AME256,"13311 State Highway 64 E, Tyler, TX 75707",75707,Americo Metal Buildings,Construction,32.310654,-95.1869834,Not Contacted,,,30,03/08/2026,Cold,0,70,High,85,42.6
CID-AND274,"2025 TX-323 S Loop, Tyler, TX 75701",75701,Anderson Automotive,Automotive,32.3276737,-95.2666432,Not Interested,11/14/2025,84,96,05/13/2026,Disqualified,0,21,Low,25,22.6
CID-ANZ159,"2000 Broussard Street, Tyler, TX 75701",75701,Anzak Inc,Electrical,32.3001799,-95.3254164,Not Contacted,,,30,03/08/2026,Cold,0,50,High,85,42
CID-AP1160,"3362 TX-323 S Loop, Tyler, TX 75701",75701,AP Roofing,Construction,32.3101235,-95.3389027,Not Contacted,,,30,03/08/2026,Cold,0,70,High,85,42.6
CID-APA140,"905 TX-110 N, Whitehouse, TX 75791",75791,"Apache Construction, Inc.",Construction,32.2404116,-95.2306643,Not Contacted,,,30,03/08/2026,Cold,0,70,High,85,42.6
CID-APP469,"1701 S High St, Longview, TX 75602",75602,Appliance ER,Other,32.4727688,-94.7425534,Not Contacted,,,30,03/08/2026,Cold,0,50,High,85,39
CID-APP458,"136 Gilmer Rd, Longview, TX 75604",75604,Appliance Repair Services,Plumbing,32.50771,-94.768436,Not Contacted,,,30,03/08/2026,Cold,0,50,High,85,39
CID-ARC073,"1134 State Hwy 64, Ben Wheeler, TX 75754",75754,Arcadian Place,Metal Fabrication,32.3761965,-95.4903163,Not Contacted,,,30,03/08/2026,Cold,0,90,High,85,46.2
CID-ARI346,"18520 Hw 69 N., Lindale, TX 75771",75771,Ariens Lawn Mower,Automotive,32.3355771,-95.3372809,Interested (Warm),11/21/2025,77,-63,12/05/2025,Interested (Warm),0.4,21,Low,25,72.6
CID-ARR459,"4 Gum Valley Cir, Longview, TX 75602",75602,Arrow Plumbing,Plumbing,32.4856175,-94.6987368,Not Contacted,,,30,03/08/2026,Cold,0,50,High,85,39
CID-ART511,"724 Bellwood Golf Club Rd, Tyler, TX 75709",75709,Artmire's Urban Forestry & Tree Service,Other,32.3423023,-95.3592606,Not Contacted,,,30,03/08/2026,Cold,0,50,High,85,39
CID-ART315,"419 N Glenwood Blvd, Tyler, TX 75702",75702,Arturo's Automotive,Automotive,32.3545523,-95.3188276,Not Contacted,,,30,03/08/2026,Cold,0,70,High,85,42.6
CID-ASA092,"13026 Kallan Ave, Tyler, TX 75703",75703,ASAP Roofing,Construction,32.2913503,-95.3490933,Interested (Warm),11/11/2025,87,-73,11/25/2025,Interested (Warm),0.4,21,Low,25,72.6
CID-ASH460,"1414 Gish Ln, Tyler, TX 75707",75707,Ashley's Truck Repair & Towing,Plumbing,32.3357341,-95.2556054,Not Contacted,,,30,03/08/2026,Cold,0,50,High,85,39
CID-ATH017,"900 NE Loop 7, Athens, TX 75752",75752,Athens Steel Building Corporation,Metal Fabrication,32.2254166,-95.8421472,Not Contacted,,,30,03/08/2026,Cold,0,90,High,85,46.2
CID-ATL645,"5511 State Hwy 31 W, Tyler, TX 75709",75709,Atlas,Other,32.3432712,-95.3628787,Not Contacted,,,30,03/08/2026,Cold,0,50,High,85,39
CID-ATL316,"415 S Palace Ave, Tyler, TX 75702",75702,Atlas Automotive,Automotive,32.3459578,-95.3107562,Disqualified,01/08/2026,29,-29,01/08/2026,Disqualified,0,70,Medium,65,102
CID-ATL855,"23370 Frontage Rd, Wills Point, TX 75169",75169,"Atlas Building Systems, Inc.",Metal Fabrication,32.60676956,-95.94610596,Not Contacted,,,30,03/08/2026,Cold,0,90,High,85,46.2
CID-ATS347,"14685 State Hwy 155 S, Tyler, TX 75703",75703,ATS Outdoor,Automotive,32.2675535,-95.3760553,Initial Contact,12/30/2025,38,-8,01/29/2026,Interested (Warm),0.2,70,Low,25,102
CID-ATW636,"105 East Centennial Boulevard, Lindale, Texas 75771",75771,Atwoods,Other,32.4964885,-95.4033449,Disqualified,11/17/2025,81,-81,11/17/2025,Disqualified,0,15,Low,25,69
CID-AUT441,"1205 E 5th St, Tyler, TX 75701",75701,AutoGlass Express,Automotive,32.3320903,-95.2869157,Not Contacted,,,30,03/08/2026,Cold,0,70,High,85,42.6
CID-AUT161,"1600 S Boldt Ave, Tyler, TX 75701",75701,AUTOMATIC GATES SERVICE REPAIRS AND MAINTENANCE,Construction,32.3319583,-95.2702191,Not Contacted,,,30,03/08/2026,Cold,0,70,High,85,42.6
CID-AUT840,"2031 W Gentry Pkwy, Tyler, TX 75702",75702,AutoZone Auto Parts,Retail,32.36553574,-95.32291412,Not Contacted,,,30,03/08/2026,Cold,0,45,High,85,38.4
CID-AVC102,"2850 S Southwest Loop 323, Tyler, TX 75701",75701,Avco Roofing,Construction,32.3179653,-95.3412561,Initial Contact,01/06/2026,31,-1,02/05/2026,Interested (Warm),0.2,70,Low,25,102
CID-AW4450,"424 Floy Lee Rd, Gilmer, TX 75645",75645,AW Welding and Fabrication,Welding,32.6987817,-94.9216497,Not Contacted,,,30,03/08/2026,Cold,0,50,High,85,42.6
CID-BHC818,"Private Address in , Texas",null,"B & H Custom Buildings, LLC",Metal Fabrication,32.4971962,-95.41795349,Not Contacted,,,30,03/08/2026,Cold,0,90,High,85,46.2
CID-B&C111,"742 Graham St, Mineola, TX 75773",75773,B&C Seamless Gutter Systems,Gutter,32.6695738,-95.4822747,Not Contacted,,,30,03/08/2026,Cold,0,60,High,85,40.8
CID-BAD162,"517 S Chilton Ave, Tyler, TX 75702",75702,Bad Storm Roofing and Restoration,Construction,32.3445125,-95.3049851,Not Contacted,,,30,03/08/2026,Cold,0,70,High,85,42.6
CID-BAI461,"Kilgore, TX 75663",75663,Bailey Plumbing,Plumbing,32.3891032,-94.8728956,Not Contacted,,,30,03/08/2026,Cold,0,50,High,85,39
CID-BAK462,"351 W Tyler St, Longview, TX 75601",75601,Baker Bros Plumbing,Plumbing,32.4986905,-94.7463755,Not Contacted,,,30,03/08/2026,Cold,0,50,High,85,39
CID-BAK325,"Private Address in Tyler, Texas",#N/A,baker construction,Construction,32.3512601,-95.3010624,Disqualified,12/09/2025,59,-59,12/09/2025,Disqualified,0,70,Low,25,102
CID-BAK400,"13225 Kallan Ave, Tyler, TX 75703",75703,Baker Distributing Company,HVAC,32.2900776,-95.3505777,Not Contacted,,,30,03/08/2026,Cold,0,70,High,85,42.6
CID-BAL163,"46376 US Highway 69 N, Bullard, TX 75757",75757,Ballew Plumbing,Construction,32.1484983,-95.3139814,Not Contacted,,,30,03/08/2026,Cold,0,70,High,85,42.6
CID-BAN088,"19616 County Rd 431, Lindale, TX 75771",75771,Bankston Gutter Company,Gutter,32.553226,-95.4611741,Initial Contact,01/05/2026,32,-2,02/04/2026,Interested (Warm),0.2,60,Low,25,96
CID-BAN401,"6618 S Broadway Ave, Tyler, TX 75703",75703,Bannister Plumbing & Air,HVAC,32.2772543,-95.3060917,Not Contacted,,,30,03/08/2026,Cold,0,70,High,85,42.6
CID-BAR451,"1381 E I 20 Access Rd, Longview, TX 75603",75603,"Bar H Welding, LLC",Welding,32.4347834,-94.7655441,Not Contacted,,,30,03/08/2026,Cold,0,50,High,85,42.6
CID-BAR106,"4295 Kinsey Dr, Tyler, TX 75703",75703,Bar None Roofing,Construction,32.3565691,-95.343873,Interested (Warm),11/12/2025,86,-72,11/26/2025,Interested (Warm),0.4,21,Low,25,72.6
CID-BAR512,"1902 Capital Dr, Tyler, TX 75701",75701,Barsco,Other,32.2966117,-95.3269302,Not Contacted,,,30,03/08/2026,Cold,0,50,High,85,39
CID-BBM646,"2121 Anthony Dr, Tyler, TX 75701",75701,BBM INDUSTRIES,Other,32.3021072,-95.328673,Disqualified,11/10/2025,88,-88,11/10/2025,Disqualified,0,15,Low,25,69
CID-BEN137,"16451 County Rd 196, Tyler, TX 75703",75703,Benco Construction,Construction,32.2409219,-95.4065204,Not Contacted,,,30,03/08/2026,Cold,0,70,High,85,42.6
CID-BEN429,"15040 TX-110, Whitehouse, TX 75791",75791,Benjamin Franklin Plumbing Whitehouse,Plumbing,32.260143,-95.2397384,Not Contacted,,,30,03/08/2026,Cold,0,50,High,85,39
CID-BEN164,"16024 TX-31, Tyler, TX 75709",75709,Benny Swan Electrical Services,Electrical,32.3235254,-95.4364725,Not Contacted,,,30,03/08/2026,Cold,0,50,High,85,42
CID-BER112,"6618 Ann Campbell Rd, Tyler, TX 75706",75706,Berry Bright Exteriors and Pressure Washing,Gutter,32.4322725,-95.3130645,Not Contacted,,,30,03/08/2026,Cold,0,60,High,85,40.8
CID-BES513,"5514 S Broadway Ave, Tyler, TX 75703",75703,Best Buy,Other,32.2882236,-95.3010951,Not Contacted,,,30,03/08/2026,Cold,0,50,High,85,39
CID-BES367,"6290 Reynolds Rd, Tyler, TX 75708",75708,Bestway Oilfield,Other,32.3860858,-95.2780479,Interested (Warm),12/10/2025,58,-44,12/24/2025,Interested (Warm),0.4,50,Low,25,90
CID-BIG442,"1225 E 5th St, Tyler, TX 75701",75701,Big 5 Tire & Auto Service,Automotive,32.331999,-95.285874,Not Contacted,,,30,03/08/2026,Cold,0,70,High,85,42.6
CID-BIG854,"21333 State Highway 64, Canton, TX 75103",75103,Big Tex Buildings,Metal Fabrication,32.51623917,-95.80324554,Not Contacted,,,30,03/08/2026,Cold,0,90,High,85,46.2
CID-BIG804,"20975 US Highway 80, Wills Point, TX 75169",75169,Big Tex Trailers,Automotive,32.6975441,-95.94155884,Not Contacted,,,30,03/08/2026,Cold,0,70,High,85,42.6
CID-BIL836,"11777 State Highway 64 W, Tyler, TX 75704",75704,Billy's Garage & Auto Sales,Automotive,32.35731506,-95.36167145,Not Contacted,,,30,03/08/2026,Cold,0,70,High,85,42.6
CID-BIR453,"2206 Balsam St, Longview, TX 75605",75605,Bird Dog Plumbing LLC,Plumbing,32.5307498,-94.7785362,Not Contacted,,,30,03/08/2026,Cold,0,50,High,85,39
CID-BIS165,"11484 FM 2868, Flint, TX 75762",75762,Bison Construction Pros,Construction,32.2028435,-95.3599436,Not Contacted,,,30,03/08/2026,Cold,0,70,High,85,42.6
CID-BIZ375,"111 W 5th St, Noonday, TX 75762",75762,Bizzy Bees Junk Removal,Junk Removal,32.3307227,-95.30168,Interested (Warm),12/22/2025,46,-32,01/05/2026,Interested (Warm),0.4,65,Low,25,99
CID-BLA803,"12190 I 20, Canton, TX 75103",75103,Black River Outdoors,Metal Fabrication,32.55171967,-95.77919006,Not Contacted,,,30,03/08/2026,Cold,0,90,High,85,46.2
CID-BLU018,"1829 Norman Dr, Jacksonville, TX 75766",75766,Blue Goose Customs & Fabrication LLC,Metal Fabrication,31.9388419,-95.2652455,No Answer,01/22/2026,15,-12,01/25/2026,Cold,0,90,Medium,65,114
CID-BLU470,"15669 County Road 196, Tyler, TX 75703",75703,Blue Line Fence LLC,Other,32.252092,-95.4063963,Not Contacted,,,30,03/08/2026,Cold,0,50,High,85,39
CID-BLU166,"6723 Highlands Ct, Tyler, TX 75703",75703,Blue Rose Roofing,Construction,32.274411,-95.3423202,Not Contacted,,,30,03/08/2026,Cold,0,70,High,85,42.6
CID-BLU430,"3708 Shiloh Rd, Tyler, TX 75707",75707,Blue Star Plumbers,Plumbing,32.2960375,-95.2504281,Not Contacted,,,30,03/08/2026,Cold,0,50,High,85,39
CID-BOD284,"1717 TX-323 W Loop, Tyler, TX 75701",75701,Body Shop,Automotive,32.3306999,-95.2665254,Not Contacted,,,30,03/08/2026,Cold,0,70,High,85,42.6
CID-BOE849,"10979 County Road 41, Tyler, TX 75706",75706,Boeh Plumbing Co,Plumbing,32.47729492,-95.34307861,Not Contacted,,,30,03/08/2026,Cold,0,50,High,85,39
CID-BOY019,"8102 County Rd 313 E, Tyler, TX 75706",75706,Boyd Metals,Metal Fabrication,32.4687072,-95.2469972,Not Contacted,,,30,03/08/2026,Cold,0,90,High,85,46.2
CID-BRA452,"6013 FM 1404, Gilmer, TX 75645",75645,Brantley Welding & Fabrication,Welding,32.7287472,-94.9424379,Not Contacted,,,30,03/08/2026,Cold,0,50,High,85,42.6
CID-BRA337,"11179 County Road 168, Tyler, TX 75703",75703,Braze Tech,Welding,32.234248,-95.3514753,Account Won,01/09/2026,28,-27,01/10/2026,Active,1,50,Medium,65,102
CID-BRA798,"22488 Interstate-20 Service Rd, Wills Point, TX 75169",75169,Brazos Trailers (Dealer),Metal Fabrication,32.60298538,-95.93634033,Not Contacted,,,30,03/08/2026,Cold,0,90,High,85,46.2
CID-BRE167,"102 N College Ave Suite #610, Tyler, TX 75702",75702,"Brexan, LLC",Construction,32.3509055,-95.301837,Not Contacted,,,30,03/08/2026,Cold,0,70,High,85,42.6
CID-BRO317,"2700 S Broadway Ave, Tyler, TX 75701",75701,Broadway Automotive,Automotive,32.320322,-95.3003472,Not Contacted,,,30,03/08/2026,Cold,0,70,High,85,42.6
CID-BRO340,"12421 State Hwy 155, Tyler, TX 75703",75703,Broadway Powersports,Automotive,32.2675535,-95.3760553,Initial Contact,12/30/2025,38,-8,01/29/2026,Interested (Warm),0.2,70,Low,25,102
CID-BRO285,"3900 Troup Hwy, Tyler, TX 75703",75703,Brown's Automotive,Automotive,32.307277,-95.2691275,Not Contacted,,,30,03/08/2026,Cold,0,70,High,85,42.6
CID-BSH151,"5380 Old Bullard Rd #600, Tyler, TX 75703",75703,BSH Electrical,Electrical,32.2907632,-95.3054938,Not Contacted,,,30,03/08/2026,Cold,0,50,High,85,42
CID-BUF348,"16255 County Road 178, Tyler, TX 75703",75703,Buford Satellite Systems LP,Other,32.2436595,-95.36252,Initial Contact,12/26/2025,42,-12,01/25/2026,Interested (Warm),0.2,50,Low,25,90
CID-BUT286,"1011 W Front St, Tyler, TX 75702",75702,Butler Alignment &Brake,Automotive,32.3472419,-95.3115059,Not Contacted,,,30,03/08/2026,Cold,0,70,High,85,42.6
CID-BWA438,"1130 E Northeast Loop 323, Tyler, TX 75708",75708,BWA Truck & Trailer LLC,Automotive,32.3882015,-95.2764639,Not Contacted,,,30,03/08/2026,Cold,0,70,High,85,42.6
CID-BXC107,"3074 Spur 124, Tyler, TX 75707",75707,BXC Roofing,Construction,32.3376563,-95.2594941,Initial Contact,11/13/2025,85,-55,12/13/2025,Interested (Warm),0.2,21,Low,25,72.6
CID-BYN141,"204 Shady Ln, Whitehouse, TX 75791",75791,Bynum Plumbing,Construction,32.229558,-95.2086775,Not Contacted,,,30,03/08/2026,Cold,0,70,High,85,42.6
CID-CW6619,"7748 US-271 N, Tyler, TX 75708",75708,C W G Fence and Decks,Fence,32.4004209,-95.2616245,Not Contacted,,,30,03/08/2026,Cold,0,70,High,85,42.6
CID-CMA822,"3291 VZ County Road 4912, Van, TX 75790",75790,C-Mac's Auto & Off-Road Detailing,Automotive,32.4873085,-95.59792328,Not Contacted,,,30,03/08/2026,Cold,0,70,High,85,42.6
CID-C.1103,"13951 TX-364 Spur, Tyler, TX 75709",75709,C. Davis Heating And Air,Construction,32.3249867,-95.3972682,Interested (Warm),01/14/2026,23,-9,01/28/2026,Interested (Warm),0.4,70,Medium,65,102
CID-C.3328,"2320 E Erwin St STE B, Tyler, TX 75702",75702,C. Woods Company,HVAC,32.3519669,-95.2717445,Initial Contact,12/23/2025,45,-15,01/22/2026,Interested (Warm),0.2,70,Low,25,102
CID-C.A281,"2944 Old Henderson Hwy, Tyler, TX 75707",75707,C.A.R.S. Garage,Automotive,32.3394876,-95.2627624,Not Contacted,,,30,03/08/2026,Cold,0,70,High,85,42.6
CID-C&H847,"3593 TX-19 S, Emory, TX 75440",75440,"C&H Carports, Inc.",Metal Fabrication,32.82215881,-95.78484344,Not Contacted,,,30,03/08/2026,Cold,0,90,High,85,46.2
CID-C&R419,"19747 TX-110, Whitehouse, TX 75791",75791,C&R Heating and Cooling,HVAC,32.1910978,-95.2011844,Not Contacted,,,30,03/08/2026,Cold,0,70,High,85,42.6
CID-CAB093,"13033 State Highway 155 S, Tyler, TX 75703",75703,Cable's Roofing,Construction,32.2911893,-95.3498847,Not Interested,11/11/2025,87,93,05/10/2026,Disqualified,0,21,Low,25,22.6
CID-CAL436,"N Poplar Ave, Tyler, TX 75702",75702,Caldwel Welding Supply Co.,Welding,32.353629,-95.2951538,Not Contacted,,,30,03/08/2026,Cold,0,50,High,85,42.6
CID-CAL335,"2951 State Highway 31 E, Tyler, TX 75702",75702,Callibur Collision,Automotive,32.2911893,-95.3498847,Interested (Warm),12/01/2025,67,-53,12/15/2025,Interested (Warm),0.4,21,Low,25,72.6
CID-CAL431,"7581 FM 14, Tyler, TX 75706",75706,Calvary Plumbing,Plumbing,32.3943154,-95.2846725,Not Contacted,,,30,03/08/2026,Cold,0,50,High,85,39
CID-CAL514,"3889 cr389, Tyler, TX 75705",75705,Calvin's welder repair,Welding,32.3847296,-95.1543508,Disqualified,11/20/2025,78,-78,11/20/2025,Disqualified,0,15,Low,25,72.6
CID-CAM168,"2606 Old Gladewater Hwy, Tyler, TX 75702",75702,Camilo's Remodeling Company,Construction,32.3764839,-95.2811711,Not Contacted,,,30,03/08/2026,Cold,0,70,High,85,42.6
CID-CAN515,"228 Tournament Rd, Tyler, TX 75702",75702,Cantley's Tv Service,Other,32.3488694,-95.3382793,Not Contacted,,,30,03/08/2026,Cold,0,50,High,85,39
CID-CAN257,"719 W Front St, Tyler, TX 75702",75702,"Cantrell Roofing, LLC",Construction,32.3471871,-95.3083824,Not Contacted,,,30,03/08/2026,Cold,0,70,High,85,42.6
CID-CAR336,"2415 E Erwin St, Tyler, TX 75702",75702,Carl Owens Truck-RV Collision,Automotive,32.3513042,-95.2712823,Initial Contact,01/02/2026,35,-5,02/01/2026,Interested (Warm),0.2,70,Low,25,102
CID-CAR848,"3740 FM 2324, Emory, TX 75440",75440,"Carolina Carports, Inc.",Business to business,32.83852386,-95.84529877,Not Contacted,,,30,03/08/2026,Cold,0,50,High,85,39
CID-CAR432,"18381 State Hwy 155, Flint, TX 75762",75762,Carroll Plumbing,Plumbing,32.2139127,-95.4164791,Not Contacted,,,30,03/08/2026,Cold,0,50,High,85,39
CID-CAS083,"2720 W Erwin St, Tyler, TX 75702",75702,Casting Repair Service,Metal Fabrication,32.3502511,-95.330988,Disqualified,11/07/2025,91,-91,11/07/2025,Disqualified,0,27,Low,25,76.2
CID-CAT007,"12198 State Hwy 64, Tyler, TX 75704",75704,Cates Machine Shop,Metal Fabrication,32.3592199,-95.3688191,Interested (Warm),11/14/2025,84,-70,11/28/2025,Interested (Warm),0.4,27,Low,25,76.2
CID-CAT378,"12198 State Highway 64 W, Tyler, TX 75704",75704,Cates Machinery,Manufacturing,32.3592199,-95.3688191,Initial Contact,12/22/2025,46,-16,01/21/2026,Interested (Warm),0.2,75,Low,25,105
CID-CE4402,"2323 Broussard Street, Tyler, TX 75701",75701,CE (Carrier Enterprise),HVAC,32.296898,-95.3294553,Not Contacted,,,30,03/08/2026,Cold,0,70,High,85,42.6
CID-CEF516,"11812 State Hwy 64, Tyler, TX 75704",75704,CEFCO Convenience Store,Other,32.3580762,-95.3619589,Not Contacted,,,30,03/08/2026,Cold,0,50,High,85,39
CID-CIR805,"18842 FM 1804, Lindale, TX 75771",75771,"Circle ""C"" Trailers",Trailer Dealer,32.54101563,-95.40960693,Not Contacted,,,30,03/08/2026,Cold,0,70,High,85,42.6
CID-CLA279,"1717 W SW Loop 323, Tyler, TX 75701",75701,Classic Toyota Collision Center,Automotive,32.3057789,-95.3208778,Not Contacted,,,30,03/08/2026,Cold,0,70,High,85,42.6
CID-CLE258,"19471 Ste. B, US-69, Lindale, TX 75771",75771,Clear Grade Excavation LLC.,Construction,32.4964885,-95.4033449,Not Contacted,,,30,03/08/2026,Cold,0,70,High,85,42.6
CID-CNC002,"11790 FM3270, Tyler, TX 75708",75708,CNC Fabrication,Metal Fabrication,32.4352525,-95.1940445,Interested (Warm),11/20/2025,78,-64,12/04/2025,Interested (Warm),0.4,27,Low,25,76.2
CID-COB471,"600 E Houston St, Tyler, TX 75702",75702,Coburn's of Tyler,Plumbing,32.3442025,-95.2954035,Not Contacted,,,30,03/08/2026,Cold,0,50,High,85,39
CID-COK341,"13906 Rex Pl, Tyler, TX 75703",75703,Coker Enterprises - Trailer,Metal Fabrication,32.3322395,-95.25891,Interested (Warm),12/02/2025,66,-52,12/16/2025,Interested (Warm),0.4,27,Low,25,76.2
CID-COL322,"12862 Frankston Hwy, Tyler, TX 75703",75703,Coleman Roofing,Roofing,32.2953123,-95.3476006,Disqualified,11/11/2025,87,-87,11/11/2025,Disqualified,0,18,Low,25,70.8
CID-COL169,"112 E Line St, Tyler, TX 75702",75702,"Collin Bryan Construction & Roofing, LLC",Construction,32.3541824,-95.2999184,Not Contacted,,,30,03/08/2026,Cold,0,70,High,85,42.6
CID-COL318,"3120 TX-323 S Loop, Tyler, TX 75701",75701,Collision Center Tyler,Automotive,32.3136279,-95.3392281,Not Contacted,,,30,03/08/2026,Cold,0,70,High,85,42.6
CID-COM287,"1315 E Gentry Pkwy, Tyler, TX 75702",75702,Complete Auto and Diesel Services LLC,Automotive,32.3629842,-95.2903689,Not Contacted,,,30,03/08/2026,Cold,0,70,High,85,42.6
CID-CON020,"729 N Fleishel Ave, Tyler, TX 75702",75702,Contract Manufacturers Ltd,Metal Fabrication,32.3576834,-95.28798,Not Contacted,,,30,03/08/2026,Cold,0,90,High,85,46.2
CID-COR170,"2424 Oak Ln, Tyler, TX 75701",75701,Core Construction,Construction,32.323635,-95.3079349,Not Contacted,,,30,03/08/2026,Cold,0,70,High,85,42.6
CID-COR517,"3468 W Erwin St, Tyler, TX 75702",75702,Core Lumber LLC,Other,32.3519149,-95.3393364,Not Contacted,,,30,03/08/2026,Cold,0,50,High,85,39
CID-COV108,"8117 US Hwy 69 N, Tyler, TX 75706",75706,Cover 3 Roofing & Construction,Construction,32.2793672,-95.3587045,Interested (Warm),11/13/2025,85,-71,11/27/2025,Interested (Warm),0.4,21,Low,25,72.6
CID-COW518,"1529 E Northeast Loop 323, Tyler, TX 75708",75708,Cowtown Materials,Other,32.3868294,-95.2688596,Not Contacted,,,30,03/08/2026,Cold,0,50,High,85,39
CID-COY171,"3047 E 5th St, Tyler, TX 75701",75701,"Coy Dodd Air Conditioning, Inc.",Construction,32.3322395,-95.25891,Not Contacted,,,30,03/08/2026,Cold,0,70,High,85,42.6
CID-COY172,"3900 S Cameron Ave, Tyler, TX 75701",75701,Coyote Roofing,Construction,32.3053275,-95.2863254,Not Contacted,,,30,03/08/2026,Cold,0,70,High,85,42.6
CID-CRA008,"18199 County Rd 4108, Lindale, TX 75771",75771,Craig's Dirt Service,Metal Fabrication,32.531384,-95.400937,Not Contacted,,,30,03/08/2026,Cold,0,90,High,85,46.2
CID-CRE113,"2616 McDonald Rd, Tyler, TX 75701",75701,"Crest Exteriors, LLC",Roofing,32.3229776,-95.2670064,Not Contacted,,,30,03/08/2026,Cold,0,60,High,85,40.8
CID-CRE472,"2600 Robertson Rd, Tyler, TX 75701",75701,CREST Process Systems Inc.,Other,32.3324895,-95.3296944,Not Contacted,,,30,03/08/2026,Cold,0,50,High,85,39
CID-CSC114,"5615 Troup Hwy, Tyler, TX 75707",75707,CSC Seamless Gutters,Gutter,32.2889696,-95.2552222,Account Won,01/15/2026,22,-21,01/16/2026,Active,1,60,Medium,65,96
CID-CUS132,"12907 State Hwy 155 Suite B, Tyler, TX 75703",75703,Custom Metal Roofing,Roofing,32.293801,-95.3481028,Not Contacted,,,30,03/08/2026,Cold,0,60,High,85,40.8
CID-CW1115,"896 Co Rd 2336, Mineola, TX 75773",75773,CW Seamless Gutters & Roofs,Roofing,32.7246647,-95.5176695,Not Contacted,,,30,03/08/2026,Cold,0,60,High,85,40.8
CID-D&R445,"308 N Gillespie Ave, Jacksonville, TX 75766",75766,D&R WELDING,Welding,31.9640315,-95.2870935,Not Contacted,,,30,03/08/2026,Cold,0,50,High,85,42.6
CID-D&S173,"726 W Elm St, Tyler, TX 75702",75702,"D&S Electric Services, Inc.",Electrical,32.3492845,-95.3086009,Not Contacted,,,30,03/08/2026,Cold,0,50,High,85,42
CID-DAL519,"8856 Jennifer Dr, Tyler, TX 75703",75703,Daly Electronics,Other,32.1998263,-95.2550691,Not Contacted,,,30,03/08/2026,Cold,0,50,High,85,39
CID-DAM174,"14225 State Hwy 155, Tyler, TX 75703",75703,Damron A/C & Heating,Construction,32.2743346,-95.3697479,Not Contacted,,,30,03/08/2026,Cold,0,70,High,85,42.6
CID-DAN288,"630 E Gentry Pkwy, Tyler, TX 75702",75702,Daniel's Auto,Automotive,32.3605018,-95.2938055,Not Contacted,,,30,03/08/2026,Cold,0,70,High,85,42.6
CID-DAN446,"691 Sawmill Rd, Chandler, TX 75758",75758,Daniell Welding & Fabrication,Welding,32.3049411,-95.4718563,Not Contacted,,,30,03/08/2026,Cold,0,50,High,85,42.6
CID-DAN454,"16371 County Road 452, Lindale, TX 75771",75771,Daniels Plumbing Pro LLC,Plumbing,32.568454,-95.436837,Not Contacted,,,30,03/08/2026,Cold,0,50,High,85,39
CID-DAU425,"10392 TX-31, Tyler, TX 75705",75705,Dauphin Plumbing Co,Plumbing,32.349195,-95.2353739,Not Contacted,,,30,03/08/2026,Cold,0,50,High,85,39
CID-DAV830,"11247 US Highway 69 N, Tyler, TX 75706",75706,David's Auto Center,Automotive,32.42831039,-95.3638916,Not Contacted,,,30,03/08/2026,Cold,0,70,High,85,42.6
CID-DAV175,"9177 County Rd 2192 Unit 1E, Whitehouse, TX 75791",75791,"Davidson Electrical Services, LLC",Electrical,32.238809,-95.2523476,Not Contacted,,,30,03/08/2026,Cold,0,50,High,85,42
CID-DB1176,"13745 County Rd 26, Tyler, TX 75707",75707,Db Excavation Inc,Construction,32.343935,-95.180379,Not Contacted,,,30,03/08/2026,Cold,0,70,High,85,42.6
CID-DE7074,"3456 Shiloh Rd, Tyler, TX 75707",75707,"De La Torre Group, Inc.",Metal Fabrication,32.295615,-95.2541017,Not Contacted,,,30,03/08/2026,Cold,0,90,High,85,46.2
CID-DEA177,"316 S Palace Ave, Tyler, TX 75702",75702,Dealers Electrical Supply,Electrical,32.3477178,-95.309842,Not Contacted,,,30,03/08/2026,Cold,0,50,High,85,42
CID-DEL289,"1117 W Erwin St, Tyler, TX 75702",75702,Delatrinidad Auto Body Shop,Automotive,32.3508203,-95.3131442,Not Contacted,,,30,03/08/2026,Cold,0,70,High,85,42.6
CID-DEN620,"5263 American Legion Rd, Tyler, TX 75708",75708,Dent Source LLC,Other,32.3892541,-95.2647473,Not Contacted,,,30,03/08/2026,Cold,0,50,High,85,39
CID-DEW648,502 S Front St,75789,Dew Tool & Die,Manufacturing,32.3452,-95.4823,Not Contacted,,,30,03/08/2026,Cold,0,75,High,85,43.8
CID-DIC178,"US-69, Tyler, TX 75703",75703,Dickson Roofing,Construction,32.2330195,-95.3116922,Not Contacted,,,30,03/08/2026,Cold,0,70,High,85,42.6
CID-DIX853,"18681 County Road 437, Lindale, TX 75771",75771,Dixie Plumbing Co.,Plumbing,32.47066879,-95.4809494,Not Contacted,,,30,03/08/2026,Cold,0,50,High,85,39
CID-DNA021,"2702 TX-42, Kilgore, TX 75662",75662,DNA Fabrication,Metal Fabrication,32.4041094,-94.8685191,Not Contacted,,,30,03/08/2026,Cold,0,90,High,85,46.2
CID-DOL179,"10839 County Rd 1223, Tyler, TX 75709",75709,Dollar ConcreteLLC,Construction,32.3247664,-95.4445632,Not Contacted,,,30,03/08/2026,Cold,0,70,High,85,42.6
CID-DON473,"6714 S Broadway Ave, Tyler, TX 75703",75703,Don's TV & Appliance Inc,Appliance,32.2760325,-95.3058806,Not Contacted,,,30,03/08/2026,Cold,0,50,High,85,40.8
CID-DOW290,"504 E Erwin St, Tyler, TX 75702",75702,DOWNTOWN GARAGE,Automotive,32.350995,-95.2959168,Not Contacted,,,30,03/08/2026,Cold,0,70,High,85,42.6
CID-DUR291,"823 E Line St, Tyler, TX 75702",75702,Duran's Auto Repair,Automotive,32.3539431,-95.2916252,Not Contacted,,,30,03/08/2026,Cold,0,70,High,85,42.6
CID-DYN142,"719-745 TX-31 Suite 173, Tyler, TX 75702",75702,Dynamic Electricians,Electrical,32.3470336,-95.3083724,Not Contacted,,,30,03/08/2026,Cold,0,50,High,85,42
CID-ES5520,"2324 E 5th St, Tyler, TX 75701",75701,E Smooth Professional Hand Car Wash and detailing Shop Express,Other,32.3325527,-95.271709,Not Contacted,,,30,03/08/2026,Cold,0,50,High,85,39
CID-EA1133,"11171 County Rd 2298, Tyler, TX 75707",75707,EA Roofing and Restoration Contractors,Roofing,32.316635,-95.1474171,Not Contacted,,,30,03/08/2026,Cold,0,60,High,85,40.8
CID-EAG094,"1521 W Erwin St, Tyler, TX 75702",75702,Eagle Electric,Electrical,32.35098,-95.3178271,Disqualified,11/07/2025,91,-91,11/07/2025,Disqualified,0,15,Low,25,72
CID-EAG086,"17521 State Hwy 155, Flint, TX 75762",75762,Eagle Steel Buildings,Metal Fabrication,32.2262171,-95.4109793,Not Interested,11/11/2025,87,93,05/10/2026,Disqualified,0,27,Low,25,26.2
CID-EAR447,"2245 County Rd 316, Lindale, TX 75771",75771,Earth&Steel Construction & Fab LLC,Welding,32.4941148,-95.2915412,Not Contacted,,,30,03/08/2026,Cold,0,50,High,85,42.6
CID-EAS621,"315 S Vine Ave, Tyler, TX 75702",75702,East Texas Alarm Inc.,Other,32.2998703,-95.2650156,Not Contacted,,,30,03/08/2026,Cold,0,50,High,85,39
CID-EAS388,"3451 S Loop 323, Tyler, TX 75701",75701,East Texas Automotive,Automotive,32.3629842,-95.2903689,Interested (Warm),11/14/2025,84,-70,11/28/2025,Interested (Warm),0.4,21,Low,25,72.6
CID-EAS338,"4719 Old Troup Hwy, Tyler, TX 75707",75707,East Texas Collision Repair,Plumbing,32.3098472,-95.3412563,Interested (Warm),11/12/2025,86,-72,11/26/2025,Interested (Warm),0.4,15,Low,25,69
CID-EAS637,"14714 State Highway 64, Tyler, Texas 75704",75704,East Texas Containers,Metal Fabrication,32.2998703,-95.2650156,Not Interested,11/17/2025,81,99,05/16/2026,Disqualified,0,27,Low,25,26.2
CID-EAS180,"11125 County Road 168, Tyler, TX 75703",75703,East Texas Elite Exteriors,Construction,32.2341382,-95.3511884,Interested (Warm),01/09/2026,28,-14,01/23/2026,Interested (Warm),0.4,70,Medium,65,102
CID-EAS022,"9200 FM2329, Athens, TX 75751",75751,East Texas Excavation,Metal Fabrication,32.252974,-95.9304625,Not Contacted,,,30,03/08/2026,Cold,0,90,High,85,46.2
CID-EAS023,"29 FRJ Dr, Longview, TX 75602",75602,East Texas Fabrication,Metal Fabrication,32.4955782,-94.6928955,Not Contacted,,,30,03/08/2026,Cold,0,90,High,85,46.2
CID-EAS116,"4616 DC Dr Unit D9, Tyler, TX 75701",75701,East Texas Gutter Systems,Gutter,32.2982802,-95.3251596,Interested (Warm),01/19/2026,18,-4,02/02/2026,Interested (Warm),0.4,60,Medium,65,96
CID-EAS466,"4097 US-271 S, Tyler, TX 75708",75708,East Texas Historical Fencing,Other,32.3839892,-95.279929,Not Contacted,,,30,03/08/2026,Cold,0,50,High,85,39
CID-EAS075,"676 County Rd 37, Tyler, TX 75706",75706,East Texas Metal Buildings LLC,Metal Fabrication,32.4144012,-95.2952687,Not Contacted,,,30,03/08/2026,Cold,0,90,High,85,46.2
CID-EAS024,"4700 Old Troup Hwy, Tyler, TX 75707",75707,East Texas Sheet Metal,Metal Fabrication,32.30048,-95.2640653,Not Contacted,,,30,03/08/2026,Cold,0,90,High,85,46.2
CID-EAS448,"107 Willingham Rd #3419, Whitehouse, TX 75791",75791,East Texas Welder Repair,Welding,32.2254679,-95.2285528,Not Contacted,,,30,03/08/2026,Cold,0,50,High,85,42.6
CID-EAS271,"1529 E Travis St, Tyler, TX 75701",75701,EASY ROOFING,Construction,32.3421418,-95.2817092,Not Contacted,,,30,03/08/2026,Cold,0,70,High,85,42.6
CID-ED1181,"1012 Meadow Ln, Tyler, TX 75702",75702,Ed Thompson Construction,Construction,32.3605339,-95.3173778,Not Contacted,,,30,03/08/2026,Cold,0,70,High,85,42.6
CID-EDI182,"3800 Paluxy Dr Ste 105, Tyler, TX 75703",75703,Edison Electricians of Tyler,Electrical,32.3066915,-95.2779527,Not Contacted,,,30,03/08/2026,Cold,0,50,High,85,42
CID-EDW521,"802 TX-323 S Loop, Tyler, TX 75701",75701,Edwards Paint & Body,Other,32.3409145,-95.3391406,Not Contacted,,,30,03/08/2026,Cold,0,50,High,85,39
CID-EL1183,"12441 FM 2767, Tyler, TX 75708",75708,El Sol Roofing,Construction,32.3667922,-95.1987366,Not Contacted,,,30,03/08/2026,Cold,0,70,High,85,42.6
CID-ELD389,"12861 Candleridge Drive, Tyler, Texas 75709",75709,Eldridge Hayter,Junk Removal,32.3635362,-95.4129799,Not Contacted,,,30,03/08/2026,Cold,0,65,High,85,42
CID-ELE184,"119 Mockingbird Ln, Tyler, TX 75701",75701,Electrical Contractors Tyler,Electrical,32.3361298,-95.3016011,Not Contacted,,,30,03/08/2026,Cold,0,50,High,85,42
CID-ELE185,"4520 Red Raider Rd, Tyler, TX 75703",75703,Electricians Company,Electrical,32.3015367,-95.298656,Not Contacted,,,30,03/08/2026,Cold,0,50,High,85,42
CID-ELI437,"2221 TX-323 W Loop, Tyler, TX 75701",75701,Elite Auto Glass Of Tyler,Automotive,32.3041919,-95.3294347,Not Contacted,,,30,03/08/2026,Cold,0,70,High,85,42.6
CID-ELI522,"3404 N Northeast Loop 323, Tyler, TX 75708",75708,Elite Collison Center,Other,32.3852603,-95.2681581,Not Contacted,,,30,03/08/2026,Cold,0,50,High,85,39
CID-ELL523,"3706 Frankston Hwy, Tyler, TX 75701",75701,Elliott Electric Supply,Electrical,32.3088873,-95.3332653,Not Contacted,,,30,03/08/2026,Cold,0,50,High,85,42
CID-EMM463,"1420 N Longview St, Kilgore, TX 75662",75662,Emmett's Plumbers,Plumbing,32.398368,-94.8663173,Not Contacted,,,30,03/08/2026,Cold,0,50,High,85,39
CID-EMO013,"1634 Pinion Rd, Gilmer, TX 75645",75645,Emory Custom Tooling,Metal Fabrication,32.625261,-94.995569,Not Contacted,,,30,03/08/2026,Cold,0,90,High,85,46.2
CID-ENG275,"1502 E Grande Blvd, Tyler, TX 75703",75703,Engines Express,Automotive,32.2788734,-95.2833829,Initial Contact,01/05/2026,32,-2,02/04/2026,Interested (Warm),0.2,70,Low,25,102
CID-ERI622,"2026 Republic Dr A, Tyler, TX 75701",75701,ERI Consulting Inc,Other,32.3048479,-95.3270662,Not Contacted,,,30,03/08/2026,Cold,0,50,High,85,39
CID-ESC334,"14674 State Hwy 155, Tyler, TX 75703",75703,Eschberger Plumbing Company LLC,Plumbing,32.2683731,-95.3776781,Initial Contact,12/30/2025,38,-8,01/29/2026,Interested (Warm),0.2,50,Low,25,90
CID-ESP524,"1858 Young Pl, Tyler, TX 75708",75708,Espinoza's Paint & Body Shop,Other,32.3797089,-95.2810936,Not Contacted,,,30,03/08/2026,Cold,0,50,High,85,39
CID-ETA821,"1450 Bromberg St, Mineola, TX 75773",75773,ETAS Inc,Metal Fabrication,32.65139008,-95.48266602,Not Contacted,,,30,03/08/2026,Cold,0,90,High,85,46.2
CID-ETX186,"14168 County Rd 365, Winona, TX 75792",75792,ETX Concrete Works,Construction,32.4666348,-95.1213734,Not Contacted,,,30,03/08/2026,Cold,0,70,High,85,42.6
CID-ETX117,"15157 FM 848, Whitehouse, TX 75791",75791,ETX Services,Gutter,32.259047,-95.1967402,Not Contacted,,,30,03/08/2026,Cold,0,60,High,85,40.8
CID-ETX025,"812 E Hubbard St, Lindale, TX 75771",75771,ETX STEEL,Metal Fabrication,32.5158698,-95.3986075,Not Contacted,,,30,03/08/2026,Cold,0,90,High,85,46.2
CID-ETX026,"10778 US Hwy 69 N, Tyler, TX 75706",75706,ETX STEEL - Tyler,Metal Fabrication,32.4213845,-95.35735,Not Contacted,,,30,03/08/2026,Cold,0,90,High,85,46.2
CID-ETX143,"226 Progress Blvd, Longview, TX 75604",75604,ETX Tree Clearing & Dirt Work,Construction,32.5049033,-94.8293295,Not Contacted,,,30,03/08/2026,Cold,0,70,High,85,42.6
CID-EVA403,"3484 FM 2813, Flint, TX 75762",75762,"Evans Air Conditioning, The Original",HVAC,32.2397634,-95.3174604,Not Contacted,,,30,03/08/2026,Cold,0,70,High,85,42.6
CID-EVE118,"121 S Broadway Ave Suite 618, Tyler, TX 75702",75702,Evergreen Roofing & Solar,Roofing,32.3500725,-95.3010626,Not Contacted,,,30,03/08/2026,Cold,0,60,High,85,40.8
CID-EXP292,"13970 State Hwy 64, Tyler, TX 75704",75704,Expert Auto Electric,Automotive,32.3637182,-95.3982592,Not Contacted,,,30,03/08/2026,Cold,0,70,High,85,42.6
CID-EXX525,"1222 TX-323 W Loop, Tyler, TX 75701",75701,Exxon,Other,32.3031444,-95.3148654,Not Contacted,,,30,03/08/2026,Cold,0,50,High,85,39
CID-F&2293,"1023 W Bow St, Tyler, TX 75702",75702,F & J AUTO SERVICE,Automotive,32.3585264,-95.3121424,Not Contacted,,,30,03/08/2026,Cold,0,70,High,85,42.6
CID-FAI259,"5380 Old Bullard Rd, Tyler, TX 75703",75703,FairClaims Roofing & Construction,Construction,32.2908037,-95.3054722,Not Contacted,,,30,03/08/2026,Cold,0,70,High,85,42.6
CID-FAI095,"18601 US Highway 69 N, Lindale, TX 75771",75771,"Faithco Enterprises, Inc., Plumbing, HVAC, & Electric",Electrical,32.5377681,-95.4159349,Interested (Warm),12/26/2025,42,-28,01/09/2026,Interested (Warm),0.4,50,Low,25,99
CID-FAR187,"3312 TX-323 S Loop, Tyler, TX 75701",75701,Farmer's Roofing and Construction,Construction,32.310586,-95.3399257,Not Contacted,,,30,03/08/2026,Cold,0,70,High,85,42.6
CID-FAS638,"2301 East Erwin St, Tyler, TX 75702",75702,Fast Signs,Other,32.4104011,-95.3493162,Disqualified,12/01/2025,67,-67,12/01/2025,Disqualified,0,15,Low,25,69
CID-FAS464,"600 TX-323 S Loop, Tyler, TX 75702",75702,Fastenal Fulfillment Center,Manufacturing,32.358716,-95.34373,Not Contacted,,,30,03/08/2026,Cold,0,75,High,85,43.8
CID-FEM027,"520 E Broadway Ave, Gladewater, TX 75647",75647,FEMCO,Metal Fabrication,32.5346045,-94.9381239,Not Contacted,,,30,03/08/2026,Cold,0,90,High,85,46.2
CID-FEN144,"2308 Glenview Ave, Tyler, TX 75701",75701,Fenix Electric ETX,Electrical,32.3248024,-95.2510746,Not Contacted,,,30,03/08/2026,Cold,0,50,High,85,42
CID-FER443,"3092 Old Henderson Hwy, Tyler, TX 75707",75707,Fernandez Auto Service LLC,Automotive,32.3374944,-95.2589565,Not Contacted,,,30,03/08/2026,Cold,0,70,High,85,42.6
CID-FIF294,"3315 Old Troup Hwy, Tyler, TX 75701",75701,Fifties Oil Change and Service Center,Automotive,32.3136984,-95.272466,Not Contacted,,,30,03/08/2026,Cold,0,70,High,85,42.6
CID-FIN260,"3092 TX-323 Loop, Tyler, TX 75701",75701,Finch Construction,Construction,32.3035015,-95.3083565,Not Contacted,,,30,03/08/2026,Cold,0,70,High,85,42.6
CID-FIR096,"2515 TX-323 W Loop, Tyler, TX 75701",75701,Firehouse Roofing,Construction,32.3127135,-95.2683979,Interested (Warm),11/10/2025,88,-74,11/24/2025,Interested (Warm),0.4,21,Low,25,72.6
CID-FIR295,"1637 S Vine Ave, Tyler, TX 75701",75701,Firestation Service Center,Automotive,32.3309501,-95.3121943,Not Contacted,,,30,03/08/2026,Cold,0,70,High,85,42.6
CID-FIS028,"2104 Anthony Dr, Tyler, TX 75701",75701,Fissco Supply HVAC - Tyler,Metal Fabrication,32.3013572,-95.3273445,Not Contacted,,,30,03/08/2026,Cold,0,90,High,85,46.2
CID-FIX433,"3708 Shiloh Rd Suite E1, Tyler, TX 75707",75707,Fix It Services,Plumbing,32.2960375,-95.2504281,Not Contacted,,,30,03/08/2026,Cold,0,50,High,85,39
CID-FJR526,"10554 State Highway 64 E, Tyler, TX 75707",75707,FJR Paint & Body,Automotive,32.3273064,-95.2360482,Not Contacted,,,30,03/08/2026,Cold,0,70,High,85,42.6
CID-FOR029,"5597 N County Road 103, Henderson, TX 75652",75652,Fortis Specialty Services LLC - Henderson Metal Fabrication and Welding,Metal Fabrication,32.2324176,-94.8629842,Not Contacted,,,30,03/08/2026,Cold,0,90,High,85,46.2
CID-FOU434,"3314 County Rd 415, Tyler, TX 75704",75704,"Fountain Plumbing, Inc",Plumbing,32.3880122,-95.4679494,Not Contacted,,,30,03/08/2026,Cold,0,50,High,85,39
CID-FPO188,"241 TX-31, Chandler, TX 75758",75758,FPO Plumbing and Heating,Construction,32.3085049,-95.477632,Not Contacted,,,30,03/08/2026,Cold,0,70,High,85,42.6
CID-FRE838,"Tyler, TX 75704",75704,Freedom Automotive,Automotive,32.35695648,-95.35968781,Not Contacted,,,30,03/08/2026,Cold,0,70,High,85,42.6
CID-FRE847,"620 N Main St, Lindale, TX 75771",75771,Fresh Start A/C & Plumbing,Plumbing,32.52166367,-95.41134644,Not Contacted,,,30,03/08/2026,Cold,0,50,High,85,39
CID-FRI189,"14394 FM 2868, Flint, TX 75762",75762,Fritcher Construction,Construction,32.2207319,-95.4077748,Not Contacted,,,30,03/08/2026,Cold,0,70,High,85,42.6
CID-FUL190,"11882 FM 3226, Arp, TX 75750",75750,Full Moon Plumbing,Construction,32.305564,-95.1336728,Not Contacted,,,30,03/08/2026,Cold,0,70,High,85,42.6
CID-FUS527,"105 Berry Ln, Jacksonville, TX 75766",75766,FUSSELL APPLIANCE,Other,31.9660347,-95.2492413,Not Contacted,,,30,03/08/2026,Cold,0,50,High,85,39
CID-GAM528,"4007 S Broadway Ave, Tyler, TX 75701",75701,Game X Change,Other,32.3071591,-95.3022562,Not Contacted,,,30,03/08/2026,Cold,0,50,High,85,39
CID-GAM191,"224 Mike Ave, Tyler, TX 75702",75702,Gamez Roofing & More,Construction,32.3483371,-95.3249425,Not Contacted,,,30,03/08/2026,Cold,0,70,High,85,42.6
CID-GAS529,"1677 US-69 N, Mineola, TX 75773",75773,Gas and Supply - Mineola,Other,32.6429024,-95.4885541,Not Contacted,,,30,03/08/2026,Cold,0,50,High,85,39
CID-GAS474,"918 S SW Loop 323, Tyler, TX 75701",75701,Gas and Supply - Tyler,Welding,32.339072,-95.339554,Not Contacted,,,30,03/08/2026,Cold,0,50,High,85,42.6
CID-GAT623,"2514 E 5th St, Tyler, TX 75701",75701,Gateway Fence Co,Fence,32.3326787,-95.2684695,Not Contacted,,,30,03/08/2026,Cold,0,70,High,85,42.6
CID-GDC192,"5409 FM 2767, Tyler, TX 75708",75708,GDC Industrial Inc,Construction,32.3564103,-95.2566715,Interested (Warm),11/13/2025,85,-71,11/27/2025,Interested (Warm),0.4,21,Low,25,72.6
CID-GEN193,"1125 TX-110, Whitehouse, TX 75791",75791,General Roofing & Restoration,Construction,32.245,-95.2336788,Not Contacted,,,30,03/08/2026,Cold,0,70,High,85,42.6
CID-GIL530,"1645 W Broad St, Mineola, TX 75773",75773,Gilbreath Welding & Services,Welding,32.6697109,-95.5133009,Not Contacted,,,30,03/08/2026,Cold,0,50,High,85,42.6
CID-GLE009,"3025 Old Henderson Hwy, Tyler, TX 75707",75707,Glenwood Blind & Awning,Metal Fabrication,32.3386998,-95.2626079,Interested (Warm),02/02/2026,4,10,02/16/2026,Interested (Warm),0.4,90,High,85,84
CID-GOL475,"1908 W Erwin St, Tyler, TX 75702",75702,"Gold, Silver & Vintage Treasures",Retail,32.3501122,-95.3221494,Not Contacted,,,30,03/08/2026,Cold,0,45,High,85,38.4
CID-GOO194,"17320 Old Bullard Rd, Tyler, TX 75703",75703,Good Choice Roofing and Renovations,Construction,32.2277718,-95.3069424,Not Contacted,,,30,03/08/2026,Cold,0,70,High,85,42.6
CID-GOO145,"14540 FM 2964, Whitehouse, TX 75791",75791,"Goodfella's Roofing & Construction, Inc.",Construction,32.2683165,-95.2583701,Not Contacted,,,30,03/08/2026,Cold,0,70,High,85,42.6
CID-GOO261,"720 Oxford Cir, Tyler, TX 75703",75703,Goodson Mechanical,Construction,32.2694447,-95.2973362,Not Contacted,,,30,03/08/2026,Cold,0,70,High,85,42.6
CID-GOT097,"10598 US Highway 69 N, Tyler, TX 75706",75706,Gotcha Covered Metal and Portable Buildings,Construction,32.4188551,-95.3555953,Account Won,11/17/2025,81,-80,11/18/2025,Active,1,21,Low,25,72.6
CID-GRA863,"8310 FM 17, Grand Saline, TX 75140",75140,Grand Fabrication Co.,Metal Fabrication,32.66041946,-95.72898865,Not Contacted,,,30,03/08/2026,Cold,0,90,High,85,46.2
CID-GRE837,"11654 State Highway 64 W, Tyler, TX 75704",75704,Greater Tyler Auto Auction,Automotive,32.35906219,-95.35965729,Not Contacted,,,30,03/08/2026,Cold,0,70,High,85,42.6
CID-GRE639,"14661 State Highway 155, Tyler, Texas 75703",75703,Green Life Technologies,Other,32.3386998,-95.2626079,Not Interested,11/10/2025,88,92,05/09/2026,Disqualified,0,15,Low,25,19
CID-GRE134,"12907 State Hwy 155, Tyler, TX 75703",75703,Greenway Gutter Pros,Gutter,32.293801,-95.3481028,Not Contacted,,,30,03/08/2026,Cold,0,60,High,85,40.8
CID-GUI503,"8966 S Broadway Ave, Tyler, TX 75703",75703,Guitar Center,Other,32.2481178,-95.3046146,Not Contacted,,,30,03/08/2026,Cold,0,50,High,85,39
CID-GUT386,"17555 Highway 155 South, Flint, Texas 75762",75762,Gutter Gutter,Other,32.2678802,-95.3756122,Interested (Warm),11/12/2025,86,-72,11/26/2025,Interested (Warm),0.4,15,Low,25,69
CID-GUT135,"7868 Pearl St, Tyler, TX 75708",75708,Gutterworks Gutter Cleaning Service,Gutter,32.3727574,-95.2519163,Interested (Warm),11/13/2025,85,-71,11/27/2025,Interested (Warm),0.4,18,Low,25,70.8
CID-HAB349,"3001 University Boulevard, Tyler, Texas 75701",75701,Habitat for Humanity,Other,32.3727574,-95.2519163,Interested (Warm),11/07/2025,91,-77,11/21/2025,Interested (Warm),0.4,15,Low,25,69
CID-HAL531,"3211 Towne Way Dr, Tyler, TX 75701",75701,Hall Collision Center,Automotive,32.31587,-95.3394785,Not Contacted,,,30,03/08/2026,Cold,0,70,High,85,42.6
CID-HAM195,"701 W Elm St, Tyler, TX 75702",75702,Hamilton Supply Co,Construction,32.3498799,-95.3078488,Not Contacted,,,30,03/08/2026,Cold,0,70,High,85,42.6
CID-HAM532,"16600 Hwy 155 S Suite 4012, Tyler, TX 75703",75703,Hammered Out Welding Academy,Welding,32.2403346,-95.4030283,Not Contacted,,,30,03/08/2026,Cold,0,50,High,85,42.6
CID-HAN834,"2801 S Main St, Lindale, TX 75771",75771,Hank's Diesel & Auto Repair,Automotive,32.47921371,-95.39414978,Not Contacted,,,30,03/08/2026,Cold,0,70,High,85,42.6
CID-HAN533,"611 VZ County Road 4907, Ben Wheeler, TX 75754",75754,Hanna's Custom Welding,Welding,32.4754664,-95.6993078,Not Contacted,,,30,03/08/2026,Cold,0,50,High,85,42.6
CID-HAR196,"5755 Eagles Nest Blvd, Tyler, TX 75703",75703,Hargrove Roofing,Construction,32.2864615,-95.2798875,Not Contacted,,,30,03/08/2026,Cold,0,70,High,85,42.6
CID-HAR476,"509 E Longview St, Arp, TX 75750",75750,Harold's Appliance Repair,Plumbing,32.3498799,-95.3078488,Not Contacted,,,30,03/08/2026,Cold,0,50,High,85,39
CID-HAU372,Address Not Found,#N/A,Hauling it Off or On,Junk Removal,NA,NA,Account Won,12/22/2025,46,-45,12/23/2025,Active,1,65,Low,25,99
CID-HEA393,"3130 Troup Hwy, Tyler, TX 75701",75701,Heating and Air Conditioning,HVAC,32.3154265,-95.275712,Not Contacted,,,30,03/08/2026,Cold,0,70,High,85,42.6
CID-HEA350,"219 S Glenwood Blvd, Tyler, TX 75702",75702,Heavy Metal and Welding,Metal Fabrication,32.2319094,-95.0502733,Interested (Warm),11/07/2025,91,-77,11/21/2025,Interested (Warm),0.4,27,Low,25,76.2
CID-HER197,"303 S Glenwood Blvd, Tyler, TX 75702",75702,Hernandez roofing,Construction,32.3480373,-95.3175484,Not Contacted,,,30,03/08/2026,Cold,0,70,High,85,42.6
CID-HER534,"FM 1803, Athens, TX 75752",75752,Herrington Welding,Welding,32.2858764,-95.714084,Not Contacted,,,30,03/08/2026,Cold,0,50,High,85,42.6
CID-HIL198,"10226 TX-31, Tyler, TX 75705",75705,Hillard Homes LLC,Construction,32.3497177,-95.2407471,Not Contacted,,,30,03/08/2026,Cold,0,70,High,85,42.6
CID-HIL296,"115 S Fleishel Ave, Tyler, TX 75702",75702,Hillside Auto Service LLC,Automotive,32.3506643,-95.2892684,Not Contacted,,,30,03/08/2026,Cold,0,70,High,85,42.6
CID-HIL535,"8713 FM-346, Whitehouse, TX 75791",75791,Hilltop Concrete,Other,32.221562,-95.2562131,Not Contacted,,,30,03/08/2026,Cold,0,50,High,85,39
CID-HIS832,"12480 Pioneer Dr, Tyler, TX 75704",75704,Histech Automotive,Automotive,32.34132385,-95.37462616,Not Contacted,,,30,03/08/2026,Cold,0,70,High,85,42.6
CID-HOB504,"4566 S Broadway Ave, Tyler, TX 75703",75703,HobbyTown,Other,32.2999833,-95.2998572,Not Contacted,,,30,03/08/2026,Cold,0,50,High,85,39
CID-HOL852,"19391 US Highway 69 N, Lindale, TX 75771",75771,"Holey Plumbing Co., Inc.",Plumbing,32.54867554,-95.42248535,Not Contacted,,,30,03/08/2026,Cold,0,50,High,85,39
CID-HOL003,"4301 Old Troup Hwy, Tyler, TX 75707",75707,Holliday Sheet Metal Co,Metal Fabrication,32.3041014,-95.2666812,Follow-Up,01/13/2026,24,-10,01/27/2026,Interested (Warm),0.2,90,Medium,65,114
CID-HOL644,"5033 US-271, Tyler, TX 75708",75708,Holt,Automotive,32.389221,-95.2758859,Disqualified,01/08/2026,29,-29,01/08/2026,Disqualified,0,70,Medium,65,102
CID-HON297,"2425 SW Loop 323, Tyler, TX 75701",75701,Honest1 Auto Care,Automotive,32.3049062,-95.3320402,Not Contacted,,,30,03/08/2026,Cold,0,70,High,85,42.6
CID-HOO030,"2410 N Lyndon Ave, Tyler, TX 75702",75702,Hood Packaging Corporation,Metal Fabrication,32.3767923,-95.2775486,Not Contacted,,,30,03/08/2026,Cold,0,90,High,85,46.2
CID-HUG298,"2100 E 5th St, Tyler, TX 75701",75701,Hughes Automotive,Automotive,32.3326589,-95.2747954,Interested (Warm),01/28/2026,9,5,02/11/2026,Interested (Warm),0.4,70,Medium,65,88
CID-HVA199,"13889 County Road 426, Lindale, TX 75771",75771,HVAC Systems of Texas,Construction,32.4719395,-95.5741796,Not Contacted,,,30,03/08/2026,Cold,0,70,High,85,42.6
CID-HWY031,"17898 State Hwy 31 E, Brownsboro, TX 75756",75756,Hwy 31 Utilities & Excavation LLC,Metal Fabrication,32.2976024,-95.6454011,Not Contacted,,,30,03/08/2026,Cold,0,90,High,85,46.2
CID-HYD643,"900 Georgia Ave, Deer Park, TX 77536",77536,Hydro Chem,Other,29.7038679,-95.1356301,Disqualified,12/11/2025,57,-57,12/11/2025,Disqualified,0,50,Low,25,90
CID-IMC032,"S Superior Rd, White Oak, TX 75693",75693,IMC Metal Building,Metal Fabrication,32.5098929,-94.8741665,Not Contacted,,,30,03/08/2026,Cold,0,90,High,85,46.2
CID-IND200,"1800 Shiloh Rd, Tyler, TX 75703",75703,Indemnity Roofing Inc,Construction,32.2955329,-95.2806931,Not Contacted,,,30,03/08/2026,Cold,0,70,High,85,42.6
CID-IND404,"11839 County Rd 497, Lindale, TX 75771",75771,Indoor Comfort Heating and Air,HVAC,32.4943115,-95.3604873,Not Contacted,,,30,03/08/2026,Cold,0,70,High,85,42.6
CID-INF864,"2228 US-80 W, Mineola, TX 75773",75773,Infinity Building Supply,Metal Fabrication,32.67346954,-95.52090454,Not Contacted,,,30,03/08/2026,Cold,0,90,High,85,46.2
CID-INF846,"7977 TX-19, Edgewood, TX 75117",75117,Infinity Carports,Metal Fabrication,32.6720047,-95.8379364,Not Contacted,,,30,03/08/2026,Cold,0,90,High,85,46.2
CID-INS536,"300 Stanford St, Tyler, TX 75701",75701,"Insco Distributing, Inc.",Other,32.3156729,-95.2983833,Not Contacted,,,30,03/08/2026,Cold,0,50,High,85,39
CID-INT201,"11490 FM 2868, Flint, TX 75762",75762,"Integrity Electric & Solar, LLC",Electrical,32.2031757,-95.3600314,Not Contacted,,,30,03/08/2026,Cold,0,50,High,85,42
CID-INT033,"6725 US-271, Tyler, TX 75708",75708,Intol Manufacturing,Metal Fabrication,32.3980575,-95.2676479,Not Contacted,,,30,03/08/2026,Cold,0,90,High,85,46.2
CID-IRO537,"15327 County Road 2123, Whitehouse, TX 75791",75791,"Iron Hill Services, LLC",Welding,32.2550258,-95.2257167,Not Contacted,,,30,03/08/2026,Cold,0,50,High,85,42.6
CID-J&5538,"16164 Knob Hill Dr, Tyler, TX 75703",75703,J & R Welding,Welding,32.3003429,-95.4383525,Not Contacted,,,30,03/08/2026,Cold,0,50,High,85,42.6
CID-J&W034,"10764 US-271, Gladewater, TX 75647",75647,J&W Machine Shop,Metal Fabrication,32.5715819,-94.9201883,Not Contacted,,,30,03/08/2026,Cold,0,90,High,85,46.2
CID-JAC477,"3813 SW Loop 323, Tyler, TX 75701",75701,Jack's Stereo,Other,32.3081822,-95.339781,Not Contacted,,,30,03/08/2026,Cold,0,50,High,85,39
CID-JAC119,"434 E Loop 281 Suite 200 G, Longview, TX 75605",75605,Jacksonville Custom Gutters,Gutter,32.5405932,-94.733977,Not Contacted,,,30,03/08/2026,Cold,0,60,High,85,40.8
CID-JAC202,"1700 TX-323 S Loop, Tyler, TX 75701",75701,Jacobe Brothers,Construction,32.3308695,-95.26511,Not Contacted,,,30,03/08/2026,Cold,0,70,High,85,42.6
CID-JAC262,"700 TX-323 S Loop, Tyler, TX 75702",75702,Jacobe Brothers Construction,Construction,32.3594052,-95.3437877,Not Contacted,,,30,03/08/2026,Cold,0,70,High,85,42.6
CID-JAM823,"23495 County Road 452, Mineola, TX 75773",75773,Jamestown Automotive (Formerly Johnny's Auto Service),Automotive,32.58235168,-95.56108093,Not Contacted,,,30,03/08/2026,Cold,0,70,High,85,42.6
CID-JAS539,"209 US-79 N, Henderson, TX 75654",75654,Jason's plumbing & Specialty services LLC,Plumbing,32.1531365,-94.7846128,Not Contacted,,,30,03/08/2026,Cold,0,50,High,85,39
CID-JB5540,"10297 County Rd 2188, Whitehouse, TX 75791",75791,JB Construction & Welding,Welding,32.2408314,-95.2409237,Not Contacted,,,30,03/08/2026,Cold,0,50,High,85,42.6
CID-JET850,"671 VZ County Road 1225, Grand Saline, TX 75140",75140,JET Shade Systems,Metal Fabrication,32.63829422,-95.75936127,Not Contacted,,,30,03/08/2026,Cold,0,90,High,85,46.2
CID-JLB478,"4240 N White Oak Rd, Gladewater, TX 75647",75647,JLB Plumbing,Plumbing,32.5731315,-94.9019348,Not Contacted,,,30,03/08/2026,Cold,0,50,High,85,39
CID-JLS203,"11002 FM2661, Tyler, TX 75704",75704,JLS Enterprises Electrical Services,Electrical,32.3235083,-95.4401416,Not Contacted,,,30,03/08/2026,Cold,0,50,High,85,42
CID-JM2204,"3127 Andy Ln, Tyler, TX 75701",75701,JM Classic Roofing,Construction,32.3139408,-95.2641686,Not Contacted,,,30,03/08/2026,Cold,0,70,High,85,42.6
CID-JNO263,"16321 FM 344 Suite 7, Bullard, TX 75757",75757,JNOVCO,Construction,32.1620873,-95.4269717,Not Contacted,,,30,03/08/2026,Cold,0,70,High,85,42.6
CID-JOE343,"5005 Old Jacksonville Hwy, Tyler, TX 75703",75703,Joe Hudson,Automotive,32.3386998,-95.2626079,Interested (Warm),12/01/2025,67,-53,12/15/2025,Interested (Warm),0.4,21,Low,25,72.6
CID-JOE327,"316 S Glenwood Blvd, Tyler, TX 75702",75702,"Joe W. Fly Co., Inc.",HVAC,32.3478771,-95.3154338,Initial Contact,01/05/2026,32,-2,02/04/2026,Interested (Warm),0.2,70,Low,25,102
CID-JOE351,"801 W Erwin St, Tyler, TX 75702",75702,Joe's Autoworks,Automotive,32.2944952,-95.3270221,Interested (Warm),11/13/2025,85,-71,11/27/2025,Interested (Warm),0.4,21,Low,25,72.6
CID-JOH541,"114 N Gaston Ave, Tyler, TX 75702",75702,John Deer,Other,32.3511236,-95.3171836,Not Contacted,,,30,03/08/2026,Cold,0,50,High,85,39
CID-JOH390,"14630 State Hwy 155, Tyler, TX 75703",75703,John Deere,Agriculture,32.3635362,-95.4129799,Interested (Warm),12/30/2025,38,-24,01/13/2026,Interested (Warm),0.4,60,Low,25,96
CID-JOH542,"1074 Evergreen Rd, Gilmer, TX 75645",75645,John Johnson Welding Services,Welding,32.6618488,-94.9565081,Not Contacted,,,30,03/08/2026,Cold,0,50,High,85,42.6
CID-JOH205,"3230 G E Dr, Tyler, TX 75701",75701,"John Spiller Heating & Air Conditioning, LLC",Construction,32.3119853,-95.2678866,Not Contacted,,,30,03/08/2026,Cold,0,70,High,85,42.6
CID-JOH543,"2131 S Green St, Longview, TX 75602",75602,Johnson Service Center,Other,32.4661161,-94.7338879,Not Contacted,,,30,03/08/2026,Cold,0,50,High,85,39
CID-JOH089,"11945 CR 182, bullard, texas 75757",75757,Johnston Gutter,Gutter,32.3635362,-95.4129799,Not Contacted,,,30,03/08/2026,Cold,0,60,High,85,40.8
CID-JON544,"1614 W Erwin St, Tyler, TX 75702",75702,Jones Auto,Automotive,32.3502727,-95.3186773,Not Contacted,,,30,03/08/2026,Cold,0,70,High,85,42.6
CID-JON545,"3235 SW Loop 323, Tyler, TX 75701",75701,Jones Paint & Body Shop,Other,32.3104354,-95.3427191,Not Contacted,,,30,03/08/2026,Cold,0,50,High,85,39
CID-JON405,"18949 State Highway 155 S, Flint, TX 75762",75762,Jonny Bs AC mini splits,HVAC,32.2051593,-95.4223715,Not Contacted,,,30,03/08/2026,Cold,0,70,High,85,42.6
CID-JR2299,"2523 E Commerce St, Tyler, TX 75702",75702,Jr Custom Paint & Collision Repair,Automotive,32.3555056,-95.2692335,Not Contacted,,,30,03/08/2026,Cold,0,70,High,85,42.6
CID-JRO546,"319 W Harrison Rd, Longview, TX 75604",75604,JRowe Plumbing,Plumbing,32.4974558,-94.7991001,Not Contacted,,,30,03/08/2026,Cold,0,50,High,85,39
CID-JT3300,"That Rd, Flint, TX 75762",75762,JT Electronics,Automotive,32.2211573,-95.3471007,Not Contacted,,,30,03/08/2026,Cold,0,70,High,85,42.6
CID-JV 857,"430 RS County Road 2400, Emory, TX 75440",75440,JV Metal Buildings LLC,Metal Fabrication,32.79162598,-95.78542328,Not Contacted,,,30,03/08/2026,Cold,0,90,High,85,46.2
CID-K&5547,"581 Elm Rd, Gilmer, TX 75645",75645,K & G Plumbing,Plumbing,32.6829491,-94.9766836,Not Contacted,,,30,03/08/2026,Cold,0,50,High,85,39
CID-K&1146,"4134 Chandler Hwy, Tyler, TX 75702",75702,"K & L Recycling, LLC",Construction,32.3435648,-95.3461935,Not Contacted,,,30,03/08/2026,Cold,0,70,High,85,42.6
CID-K55005,"5119 State Highway 64, Ben Wheeler, TX 75754",75754,K5 Welding & Fabrication,Welding,32.395079,-95.5627,Not Contacted,,,30,03/08/2026,Cold,0,50,High,85,42.6
CID-KAR833,"1630 N Northwest Loop 323, Tyler, TX 75704",75704,Kars Auto Sales and Service,Automotive,32.36923981,-95.34393311,Not Contacted,,,30,03/08/2026,Cold,0,70,High,85,42.6
CID-KAS301,"409 N Glenwood Blvd, Tyler, TX 75702",75702,KASCO PAINT AND BODY,Automotive,32.3536891,-95.3188448,Not Contacted,,,30,03/08/2026,Cold,0,70,High,85,42.6
CID-KBR264,"323 E Mims St, Tyler, TX 75702",75702,KBR Inc,Construction,32.3718503,-95.2973278,Not Contacted,,,30,03/08/2026,Cold,0,70,High,85,42.6
CID-KEA098,"2913 Plymouth Cir, Tyler, TX 75707",75707,KEA Construction,Construction,32.3510995,-95.3087984,Interested (Warm),11/12/2025,86,-72,11/26/2025,Interested (Warm),0.4,21,Low,25,72.6
CID-KEE206,"217 TX-110 S, Whitehouse, TX 75791",75791,Kee Electric Co,Electrical,32.2239534,-95.2252772,Not Contacted,,,30,03/08/2026,Cold,0,50,High,85,42
CID-KIL035,"9715 State Hwy 64, Selman City, TX 75689",75689,Kiltex Machine Shop,Metal Fabrication,32.1875154,-94.9453857,Not Contacted,,,30,03/08/2026,Cold,0,90,High,85,46.2
CID-LA2207,"16720 State Hwy 155 Suite. 1008, Tyler, TX 75703",75703,L and N Excavating LLC,Construction,32.2383804,-95.4043464,Not Contacted,,,30,03/08/2026,Cold,0,70,High,85,42.6
CID-LAK036,"1251 Bromberg St, Mineola, TX 75773",75773,Lake Country Machine,Metal Fabrication,32.6517347,-95.4874929,Not Contacted,,,30,03/08/2026,Cold,0,90,High,85,46.2
CID-LAN549,"750 Van Zandt, Co Rd 4905, Ben Wheeler, TX 75754",75754,Landaverde's Welding,Welding,32.433429,-95.5956638,Not Contacted,,,30,03/08/2026,Cold,0,50,High,85,42.6
CID-LAP649,No address,75789,Lapeyre Custom Welding,Metal Fabrication,,,Not Contacted,,,30,03/08/2026,Cold,0,90,High,85,46.2
CID-LAP550,"107 TX-110, Whitehouse, TX 75791",75791,Laptops For Less,Other,32.2278017,-95.2267083,Not Contacted,,,30,03/08/2026,Cold,0,50,High,85,39
CID-LED479,"1526 W Marshall Ave, Longview, TX 75604",75604,Ledbetter Plumbing,Plumbing,32.5049016,-94.7759356,Not Contacted,,,30,03/08/2026,Cold,0,50,High,85,39
CID-LEE406,"11851 TX-248 Spur, Tyler, TX 75707",75707,Lee's Plumbing,Plumbing,32.3162595,-95.2131611,Not Contacted,,,30,03/08/2026,Cold,0,50,High,85,39
CID-LEG801,"160 FM 1256, Eustace, TX 75124",75124,Legend Trailers,Metal Fabrication,32.39833069,-95.85174561,Not Contacted,,,30,03/08/2026,Cold,0,90,High,85,46.2
CID-LEN407,"1818 Capital Drive, Tyler, TX 75701",75701,Lennox Stores (Parts Plus),HVAC,32.2964769,-95.3263353,Not Contacted,,,30,03/08/2026,Cold,0,70,High,85,42.6
CID-LEV208,"13365 County Rd 2299, Arp, TX 75750",75750,"Level-Up Excavation & Land Management, LLC",Construction,32.2812596,-95.0380984,Not Contacted,,,30,03/08/2026,Cold,0,70,High,85,42.6
CID-LEW352,"1716 E Erwin St, Tyler, TX 75702",75702,Lews Welding,Welding,32.2888475,-95.2640359,Account Won,11/13/2025,85,-84,11/14/2025,Active,1,15,Low,25,72.6
CID-LEX408,"2105 Anthony Dr, Tyler, TX 75701",75701,LEX ETX,HVAC,32.3020427,-95.327706,Not Contacted,,,30,03/08/2026,Cold,0,70,High,85,42.6
CID-LIF480,"2107 Broussard St, Tyler, TX 75701",75701,Lifegas,Other,32.3007815,-95.3276022,Not Contacted,,,30,03/08/2026,Cold,0,50,High,85,39
CID-LIK624,"2459 Mosaic Way Suite A, Tyler, TX 75701",75701,Likewise Coffee,Retail,32.3288971,-95.32992,Not Contacted,,,30,03/08/2026,Cold,0,45,High,85,38.4
CID-LIL037,"10259 County Rd 2213, Tyler, TX 75707",75707,Lilly Machinery Inc,Metal Fabrication,32.291082,-95.2414513,Interested (Warm),11/12/2025,86,-72,11/26/2025,Interested (Warm),0.4,27,Low,25,76.2
CID-LIN551,"205 S Main St, Lindale, TX 75771",75771,Lindale Area Chamber of Commerce,Other,32.514157,-95.4097656,Not Contacted,,,30,03/08/2026,Cold,0,50,High,85,39
CID-LIN552,"7064 TX-42, Kilgore, TX 75662",75662,Linde Welding Gas & Equipment Center,Other,32.4360192,-94.8626392,Not Contacted,,,30,03/08/2026,Cold,0,50,High,85,39
CID-LMC038,"827 Fisher Rd, Longview, TX 75604",75604,LMC FAB,Metal Fabrication,32.5023235,-94.819502,Not Contacted,,,30,03/08/2026,Cold,0,90,High,85,46.2
CID-LON302,"10487 County Road 210, Tyler, TX 75707",75707,Lon's Cylinder Head Repair,Automotive,32.3276318,-95.2102653,Not Contacted,,,30,03/08/2026,Cold,0,70,High,85,42.6
CID-LON209,"Private Address in Flint, Texas",75777,Lone Star Building Systems LLC,Construction,32.2040437,-95.3485635,Not Contacted,,,30,03/08/2026,Cold,0,70,High,85,42.6
CID-LON210,"6003 Old Bullard Rd # 224, Tyler, TX 75703",75703,Lone Star Electricians,Electrical,32.2834955,-95.3081144,Not Contacted,,,30,03/08/2026,Cold,0,50,High,85,42
CID-LON211,"2724 E Commerce St, Tyler, TX 75708",75708,Lone Star Exteriors,Construction,32.3569258,-95.2667946,Initial Contact,01/19/2026,18,12,02/18/2026,Interested (Warm),0.2,70,Medium,65,72
CID-LON039,"1913 Brandon Dr, Tyler, TX 75703",75703,Lone Star Sheet Metal Works,Metal Fabrication,32.2662131,-95.2786885,Not Contacted,,,30,03/08/2026,Cold,0,90,High,85,46.2
CID-LON859,"5140 US-69 N, Alba, TX 75410",75410,Lonestar Sheds,Metal Fabrication,32.82572556,-95.68592072,Not Contacted,,,30,03/08/2026,Cold,0,90,High,85,46.2
CID-LON212,"17867 County Rd 498, Lindale, TX 75771",75771,Longhorn Electrical TX LLC,Electrical,32.5280121,-95.3694526,Not Contacted,,,30,03/08/2026,Cold,0,50,High,85,42
CID-LON553,"303 TX-281 W Loop, Longview, TX 75605",75605,Longview Appliance Repair,Plumbing,32.5353782,-94.7170268,Not Contacted,,,30,03/08/2026,Cold,0,50,High,85,39
CID-LON040,"1201 Cherokee Trce, White Oak, TX 75693",75693,Longview Production Associates,Metal Fabrication,32.5176761,-94.8665872,Not Contacted,,,30,03/08/2026,Cold,0,90,High,85,46.2
CID-LOT041,"11272 County Road 137, Flint, TX 75762",75762,Lott Sheet Metal,Metal Fabrication,32.2055488,-95.3457937,Not Contacted,,,30,03/08/2026,Cold,0,90,High,85,46.2
CID-LOV213,"3128 TX-124 Loop, Tyler, TX 75707",75707,Love Electric Inc,Electrical,32.3359057,-95.2570329,Not Contacted,,,30,03/08/2026,Cold,0,50,High,85,42
CID-LOW554,"5720 S Broadway Ave, Tyler, TX 75703",75703,Lowe's Home Improvement,Retail,32.2858051,-95.3014293,Not Contacted,,,30,03/08/2026,Cold,0,45,High,85,38.4
CID-LTD042,"9464 FM 2767, Tyler, TX 75705",75705,LTD Fabrication,Metal Fabrication,32.3611709,-95.2465645,Not Contacted,,,30,03/08/2026,Cold,0,90,High,85,46.2
CID-MAA481,"2110 Anthony Dr, Tyler, TX 75701",75701,Maaco Auto Body Shop & Painting,Automotive,32.301469,-95.3278181,Not Contacted,,,30,03/08/2026,Cold,0,70,High,85,42.6
CID-MAB043,"1430 John Carney Dr, Tyler, TX 75701",75701,MABBCO Motors,Metal Fabrication,32.3325722,-95.3277334,Not Contacted,,,30,03/08/2026,Cold,0,90,High,85,46.2
CID-MAD265,"125 S Bonner Ave, Tyler, TX 75702",75702,Maddox Residential & Commercial Services,Electrical,32.3499554,-95.3059643,Interested (Warm),11/07/2025,91,-77,11/21/2025,Interested (Warm),0.4,15,Low,25,72
CID-MAG353,"3891 County Road 389, Tyler, TX 75705",75705,Magneto Service & Supply,Other,32.3499554,-95.3059643,Interested (Warm),11/13/2025,85,-71,11/27/2025,Interested (Warm),0.4,15,Low,25,69
CID-MAJ625,"304 Enterprise St, Longview, TX 75604",75604,Major Appliance Service,Other,32.5016968,-94.785976,Not Contacted,,,30,03/08/2026,Cold,0,50,High,85,39
CID-MAS354,"5855 Old Jacksonville Hwy, Tyler, TX 75703",75703,Mas Tec,Other,32.2857726,-95.3310084,Initial Contact,01/02/2026,35,-5,02/01/2026,Interested (Warm),0.2,50,Low,25,90
CID-MAS555,"5004 FM 2767, Tyler, TX 75708",75708,Master Halco,Other,32.3546536,-95.257678,Initial Contact,01/16/2026,21,9,02/15/2026,Interested (Warm),0.2,50,Medium,65,60
CID-MAS044,"6256 Reynolds Rd, Tyler, TX 75708",75708,Master Metallizing & Machining,Metal Fabrication,32.3860459,-95.277801,Not Contacted,,,30,03/08/2026,Cold,0,90,High,85,46.2
CID-MAT640,"420 N Beckham Ave, Tyler, TX 75702",75702,MATHESON,Welding,32.3543482,-95.2954451,Disqualified,11/07/2025,91,-91,11/07/2025,Disqualified,0,15,Low,25,72.6
CID-MAU409,"7434 Waterview Sq, Tyler, TX 75703",75703,Mauch Plumbing LLC,Plumbing,32.2704259,-95.3472445,Not Contacted,,,30,03/08/2026,Cold,0,50,High,85,39
CID-MAX120,"436 Southgate Ave, Tyler, TX 75702",75702,Max Handyman Services LLC,Roofing,32.3451648,-95.3325454,Not Contacted,,,30,03/08/2026,Cold,0,60,High,85,40.8
CID-MAY045,"7525 US Highway 271 S, Gilmer, TX 75645",75645,Mayhan Fabricators Inc,Metal Fabrication,32.6251743,-94.9216905,Not Contacted,,,30,03/08/2026,Cold,0,90,High,85,46.2
CID-MAY556,"Jim Hogg Rd, Lindale, TX 75771",75771,Mayne Welding,Welding,32.5037165,-95.3937048,Not Contacted,,,30,03/08/2026,Cold,0,50,High,85,42.6
CID-MB5557,"2611 US Highway 271, Tyler, TX 75708",75708,Mb & G Fabrication,Manufacturing,32.3776412,-95.2858924,Not Contacted,,,30,03/08/2026,Cold,0,75,High,85,43.8
CID-MC4482,"11152 County Road 1113, Tyler, TX 75709",75709,Mc Cown Engineering LLC,Other,32.2926054,-95.3513125,Not Contacted,,,30,03/08/2026,Cold,0,50,High,85,39
CID-MCK854,"13240 County Road 434, Lindale, TX 75771",75771,Mc Kinney & Sons Plumbing,Plumbing,32.4597168,-95.46199799,Not Contacted,,,30,03/08/2026,Cold,0,50,High,85,39
CID-MCC626,"1000 TX-323 S Loop, Tyler, TX 75701",75701,McCoy's Building Supply,Other,32.30328,-95.2896464,Not Contacted,,,30,03/08/2026,Cold,0,50,High,85,39
CID-MCC331,"13085 County Rd 192, Tyler, TX 75703",75703,McCoy's Plumbing Inc,Plumbing,32.2897317,-95.3411388,Interested (Warm),12/12/2025,56,-42,12/26/2025,Interested (Warm),0.4,50,Low,25,90
CID-MCD371,"2705 E 5th St, Tyler, TX 75701",75701,McDonalds,Other,32.3319886,-95.2650639,Initial Contact,12/12/2025,56,-26,01/11/2026,Interested (Warm),0.2,50,Low,25,90
CID-MCE046,"725 Arp Dr, Troup, TX 75789",75789,McElroy Plastics,Metal Fabrication,32.1506029,-95.1170691,Not Contacted,,,30,03/08/2026,Cold,0,90,High,85,46.2
CID-MCE647,8189 FM 2064 N,75789,McEver Machine Works,Metal Fabrication,32.3584,-95.4891,Not Contacted,,,30,03/08/2026,Cold,0,90,High,85,46.2
CID-MCM084,"11719 Laney Rd, Tyler, TX 75708",75708,MCM Metal Buildings,Metal Fabrication,32.4334892,-95.1899072,Not Interested,11/20/2025,78,102,05/19/2026,Disqualified,0,27,Low,25,26.2
CID-MEL483,"2505 W NW Loop 323, Tyler, TX 75702",75702,Melvin Lewis Welding,Welding,32.3826538,-95.328587,Not Contacted,,,30,03/08/2026,Cold,0,50,High,85,42.6
CID-MER047,"703 Gladewater St, Kilgore, TX 75662",75662,Merritt Preferred Components,Metal Fabrication,32.385929,-94.8864938,Not Contacted,,,30,03/08/2026,Cold,0,90,High,85,46.2
CID-MET048,"705 W Bradford St, Troup, TX 75789",75789,Metal Building Supplies of America,Metal Fabrication,32.1460137,-95.1277345,Not Contacted,,,30,03/08/2026,Cold,0,90,High,85,46.2
CID-MET049,"17536 State Hwy 155, Flint, TX 75762",75762,Metal Buildings ETX,Metal Fabrication,32.2263535,-95.4121794,Not Contacted,,,30,03/08/2026,Cold,0,90,High,85,46.2
CID-MET050,"18666 US Highway 69 N, Lindale, TX 75771",75771,Metal Works,Metal Fabrication,32.5378861,-95.4149591,Not Contacted,,,30,03/08/2026,Cold,0,90,High,85,46.2
CID-MET051,"13437 TX-110 S, Tyler, TX 75707",75707,MetalSmiths,Metal Fabrication,32.2844862,-95.2493654,Not Contacted,,,30,03/08/2026,Cold,0,90,High,85,46.2
CID-MID627,"4707 Chad Dr, Tyler, TX 75703",75703,MidSouth Distributing,Other,32.2979232,-95.2860931,Not Contacted,,,30,03/08/2026,Cold,0,50,High,85,39
CID-MID355,"14661 State Hwy 155 S, Tyler, TX 75703",75703,Midtown Appliance,Other,32.3475156,-95.3062481,Initial Contact,12/29/2025,39,-9,01/28/2026,Interested (Warm),0.2,50,Low,25,90
CID-MIK147,"3014 TX-323 Loop, Tyler, TX 75701",75701,Mikasa Construction,Construction,32.3035015,-95.3083565,Not Contacted,,,30,03/08/2026,Cold,0,70,High,85,42.6
CID-MIL099,"14907 Hwy 155 S, Tyler, TX 75703",75703,Miller Electric Inc,Electrical,32.2641296,-95.3786718,Not Interested,11/11/2025,87,93,05/10/2026,Disqualified,0,15,Low,25,22
CID-MIL303,"6715 Rhones Quarter Rd, Tyler, TX 75707",75707,Miller's Automotive Repair,Automotive,32.2753267,-95.2611294,Not Contacted,,,30,03/08/2026,Cold,0,70,High,85,42.6
CID-MIT866,"30855 State Highway 64, Wills Point, TX 75169",75169,Mitchell Steel,Metal Fabrication,32.60722351,-95.93074799,Not Contacted,,,30,03/08/2026,Cold,0,90,High,85,46.2
CID-MIT558,"3539 US-271, Tyler, TX 75708",75708,Mitchell Welding Supply,Welding,32.3800687,-95.2807402,Not Contacted,,,30,03/08/2026,Cold,0,50,High,85,42.6
CID-MOB559,"2121 Old Henderson Hwy, Tyler, TX 75702",75702,Mobile Communications America,Other,32.3474582,-95.275549,Disqualified,11/10/2025,88,-88,11/10/2025,Disqualified,0,15,Low,25,69
CID-MOD214,"16075 Old Jacksonville Hwy, Tyler, TX 75703",75703,Modern Roofing & Restoration,Construction,32.2464477,-95.3480147,Interested (Warm),01/15/2026,22,-8,01/29/2026,Interested (Warm),0.4,70,Medium,65,102
CID-MOD560,"3616 River Rd, Kilgore, TX 75662",75662,Modisette Welding & Supply Corporation,Welding,32.4409454,-94.8761139,Not Contacted,,,30,03/08/2026,Cold,0,50,High,85,42.6
CID-MON215,"13917 Hwy 155 South, Tyler, TX 75703",75703,Montrose Concrete Inc,Construction,32.2736243,-95.3715259,Not Contacted,,,30,03/08/2026,Cold,0,70,High,85,42.6
CID-MOO216,"1205 S Bennett Ave, Tyler, TX 75701",75701,Moody & Phillips Electric Company,Construction,32.3355771,-95.3372809,Not Contacted,,,30,03/08/2026,Cold,0,70,High,85,42.6
CID-MOO561,"3226 Shiloh Rd, Tyler, TX 75707",75707,Moore Supply Co.,Other,32.2959549,-95.2579096,Not Contacted,,,30,03/08/2026,Cold,0,50,High,85,39
CID-MOO824,"20288 County Road 450, Lindale, TX 75771",75771,Moore's Mobile Mechanic and road side assistance,Automotive,32.56407547,-95.53624725,Not Contacted,,,30,03/08/2026,Cold,0,70,High,85,42.6
CID-MOO562,"4220 Timms St, Tyler, TX 75701",75701,"Moose Auto Glass, Inc.",Automotive,32.3049894,-95.3300961,Not Contacted,,,30,03/08/2026,Cold,0,70,High,85,42.6
CID-MOR563,"2006 W Erwin St, Tyler, TX 75702",75702,Morales Paint & Body Shop,Other,32.3498489,-95.3231987,Not Contacted,,,30,03/08/2026,Cold,0,50,High,85,39
CID-MOR217,"102 N College Ave, Tyler, TX 75702",75702,Morris Roofing and Construction,Construction,32.3509217,-95.3018785,Not Contacted,,,30,03/08/2026,Cold,0,70,High,85,42.6
CID-MR.628,"3412 TX-323 S Loop, Tyler, TX 75701",75701,Mr. Appliance of East Texas,Appliance,32.3093757,-95.3382234,Not Contacted,,,30,03/08/2026,Cold,0,50,High,85,40.8
CID-MUR356,"513 N Poplar Ave, Tyler, TX 75702",75702,Murpheys Welding,Welding,32.3474582,-95.275549,Account Won,11/26/2025,72,-71,11/27/2025,Active,1,15,Low,25,72.6
CID-MZA843,"3224 S Main St, Lindale, TX 75771",75771,"MZA Plumbing, Heating & Air Conditioning",Plumbing,32.47445297,-95.39033508,Not Contacted,,,30,03/08/2026,Cold,0,50,High,85,39
CID-NAP484,"1003 W Cotton St, Longview, TX 75604",75604,"Napps Cooling, Heating & Plumbing",Plumbing,32.4981981,-94.7608736,Not Contacted,,,30,03/08/2026,Cold,0,50,High,85,39
CID-NAT505,"13240 TX-110, Tyler, TX 75707",75707,National Wholesale,Other,32.2865486,-95.252715,Not Contacted,,,30,03/08/2026,Cold,0,50,High,85,39
CID-NEW052,"5881 FM 2767, Tyler, TX 75708",75708,New Hope Energy Fabrication,Metal Fabrication,32.3580967,-95.2561494,Interested (Warm),11/13/2025,85,-71,11/27/2025,Interested (Warm),0.4,27,Low,25,76.2
CID-NEW218,"23402 County Road 121, Bullard, TX 75757",75757,Newburn Appliance Services,Construction,32.1354331,-95.2801579,Not Contacted,,,30,03/08/2026,Cold,0,70,High,85,42.6
CID-NEX564,"911 W Loop 281, Longview, TX 75604",75604,Next Plumbing & Heating,Plumbing,32.5388746,-94.7652023,Not Contacted,,,30,03/08/2026,Cold,0,50,High,85,39
CID-NIC485,"Fm 14, Tyler, TX 75708",75708,Nick's Trailer Hitch Shop,Other,32.4122894,-95.2787594,Not Contacted,,,30,03/08/2026,Cold,0,50,High,85,39
CID-NIK835,"11777 State Highway 64, Tyler, TX 75704",75704,Nikobi Auto,Automotive,32.35731506,-95.36167145,Not Contacted,,,30,03/08/2026,Cold,0,70,High,85,42.6
CID-NIP629,"14969 TX-110, Whitehouse, TX 75791",75791,Nipper's Quality Auto Works,Automotive,32.2614545,-95.23864,Not Contacted,,,30,03/08/2026,Cold,0,70,High,85,42.6
CID-NO3379,"420 E Seagle St Suite B, Tyler, TX 75701",75701,No Junk,Junk Removal,32.3250314,-95.2965838,Account Won,12/23/2025,45,-44,12/24/2025,Active,1,65,Low,25,99
CID-NOR565,"12326 State Highway 31 W, Tyler, TX 75709",75709,Northwest Collision Center,Automotive,32.3386108,-95.3725507,Interested (Warm),01/14/2026,23,-9,01/28/2026,Interested (Warm),0.4,70,Medium,65,102
CID-ORE826,"861 S Oak St, Van, TX 75790",75790,O'Reilly Auto Parts,Retail,32.51333237,-95.64269257,Not Contacted,,,30,03/08/2026,Cold,0,45,High,85,38.4
CID-OFF566,"4329 Old Bullard Rd, Tyler, TX 75703",75703,Office Depot,Other,32.3020919,-95.3060117,Not Contacted,,,30,03/08/2026,Cold,0,50,High,85,39
CID-OLD053,"218 S Spring Ave, Tyler, TX 75702",75702,Old Geezers Vintage Auto,Metal Fabrication,32.3488278,-95.2982359,Not Contacted,,,30,03/08/2026,Cold,0,90,High,85,46.2
CID-OMA486,"2517 E Commerce St, Tyler, TX 75702",75702,Omar Colision Repaircenter,Plumbing,32.3557206,-95.2700355,Not Contacted,,,30,03/08/2026,Cold,0,50,High,85,39
CID-OME148,"1602 W Houston St, Tyler, TX 75702",75702,Omega Custom Fabrication LLC,Construction,32.3433114,-95.318199,Not Contacted,,,30,03/08/2026,Cold,0,70,High,85,42.6
CID-ON-282,"830 TX-323 S Loop, Tyler, TX 75702",75702,ON-Sight Auto Body,Automotive,32.3863263,-95.3194216,Not Contacted,,,30,03/08/2026,Cold,0,70,High,85,42.6
CID-ONE319,"1602 W Front St, Tyler, TX 75702",75702,One Stop Auto Center,Automotive,32.3462484,-95.3185419,Not Contacted,,,30,03/08/2026,Cold,0,70,High,85,42.6
CID-ONE006,"14762 TX-110, Whitehouse, TX 75791",75791,One-Ten Welding,Metal Fabrication,32.2639775,-95.2405148,Interested (Warm),12/22/2025,46,-32,01/05/2026,Interested (Warm),0.4,90,Low,25,114
CID-OVE357,"16474 St Hwy 31W, Tyler, TX 75709",75709,Overhead Door Company,Other,32.3509349,-95.2825832,Interested (Warm),11/10/2025,88,-74,11/24/2025,Interested (Warm),0.4,15,Low,25,69
CID-PAC010,"10551 Pac Rd, Tyler, TX 75707",75707,PAC-CLAD | Petersen,Metal Fabrication,32.2904588,-95.2357853,Not Contacted,,,30,03/08/2026,Cold,0,90,High,85,46.2
CID-PAL567,"206 Broad St, Chandler, TX 75758",75758,"Palady Air Services, LLC",Plumbing,32.3069019,-95.4798737,Not Contacted,,,30,03/08/2026,Cold,0,50,High,85,39
CID-PAN076,"211 Knowles St, Kilgore, TX 75662",75662,Panther Fabrication,Metal Fabrication,32.3840965,-94.8771384,Not Contacted,,,30,03/08/2026,Cold,0,90,High,85,46.2
CID-PAT825,"24428 FM 1995, Lindale, TX 75771",75771,Patriot Diesel (Auto truck and diesel repair),Automotive,32.49688721,-95.57865906,Not Contacted,,,30,03/08/2026,Cold,0,70,High,85,42.6
CID-PAT100,"6352 Old Noonday Rd, Tyler, TX 75703",75703,Patriot Electric Services,Electrical,32.2797894,-95.3444904,Initial Contact,12/26/2025,42,-12,01/25/2026,Interested (Warm),0.2,50,Low,25,99
CID-PAY487,"2000 S Eastman Rd, Longview, TX 75602",75602,Payne Mechanical Services,Other,32.470966,-94.7068064,Not Contacted,,,30,03/08/2026,Cold,0,50,High,85,39
CID-PED277,"2022 E Gentry Pkwy, Tyler, TX 75702",75702,Pedros Paint and Body,Automotive,32.3202746,-95.4438999,Interested (Warm),11/26/2025,72,-58,12/10/2025,Interested (Warm),0.4,21,Low,25,72.6
CID-PEP488,"3616 S Broadway Ave, Tyler, TX 75701",75701,Pep Boys Auto Service & Tires,Automotive,32.3090048,-95.2997898,Not Contacted,,,30,03/08/2026,Cold,0,70,High,85,42.6
CID-PET630,"1902 US-80 E, White Oak, TX 75693",75693,Peter Paul's Plumbing,Plumbing,32.5255948,-94.8773352,Not Contacted,,,30,03/08/2026,Cold,0,50,High,85,39
CID-PET358,"12872 State Hwy 155 Suite 18, Tyler, TX 75703",75703,Petroleum Group,Other,32.3724976,-95.2879909,Interested (Warm),11/21/2025,77,-63,12/05/2025,Interested (Warm),0.4,15,Low,25,69
CID-PHI816,"18690 US Highway 69 N, Lindale, TX 75771",75771,Phillips Steel Buildings LLC,Construction,32.53929901,-95.4156723,Not Contacted,,,30,03/08/2026,Cold,0,70,High,85,42.6
CID-PLU568,"14630 State Hwy 155 S, Tyler, TX 75703",75703,Plumbings at The Home Depot,Plumbing,32.2950183,-95.3480354,Not Contacted,,,30,03/08/2026,Cold,0,50,High,85,39
CID-PON569,"Birchwood Path, Holly Lake Ranch, TX 75765",75765,Ponder Appliance Repair,Plumbing,32.7185089,-95.1721715,Not Contacted,,,30,03/08/2026,Cold,0,50,High,85,39
CID-POO219,"1111 E Olive St, Tyler, TX 75702",75702,Poole Construction LLC,Construction,32.3629384,-95.288542,Not Contacted,,,30,03/08/2026,Cold,0,70,High,85,42.6
CID-POS220,"1950 Stonegate Circle, Tyler, TX 75703",75703,"Post Oak Roofing, LLC",Construction,32.2884137,-95.2723624,Not Contacted,,,30,03/08/2026,Cold,0,70,High,85,42.6
CID-POW570,"19248 Hillside Dr, Tyler, TX 75703",75703,Power Clean,Electrical,32.1985752,-95.2540359,Not Contacted,,,30,03/08/2026,Cold,0,50,High,85,42
CID-PRE077,"12551 County Road 282, Whitehouse, TX 75791",75791,Precision Custom Cuts,Metal Fabrication,32.2692208,-95.2027048,Not Contacted,,,30,03/08/2026,Cold,0,90,High,85,46.2
CID-PRE381,"1608 E Richards St, Tyler, TX 75702",75702,Precision Junk Removal,Other,32.3493703,-95.2813846,Initial Contact,01/06/2026,31,-1,02/05/2026,Interested (Warm),0.2,50,Low,25,90
CID-PRE276,"13382 TX-110, Tyler, TX 75707",75707,Premier Auto Repair,Automotive,32.2844451,-95.2506662,Interested (Warm),11/12/2025,86,-72,11/26/2025,Interested (Warm),0.4,21,Low,25,72.6
CID-PRE489,"3810 Timms St, Tyler, TX 75701",75701,Preventative,Other,32.3062003,-95.3300386,Not Contacted,,,30,03/08/2026,Cold,0,50,High,85,39
CID-PRI221,"2702 E 5th St #745, Tyler, TX 75701",75701,Prime Electric,Electrical,32.3335242,-95.2657331,Not Contacted,,,30,03/08/2026,Cold,0,50,High,85,42
CID-PRI222,"Private Address in Bullard, Texas",75710,PrimeTime Plumbing,Construction,32.1398804,-95.320229,Not Contacted,,,30,03/08/2026,Cold,0,70,High,85,42.6
CID-PRO641,"15196 Cr 1134, Tyler, TX 75709",75709,Pro Star Rental,Other,32.3155071,-95.421227,Disqualified,11/11/2025,87,-87,11/11/2025,Disqualified,0,15,Low,25,69
CID-PRO631,"5454 Oakridge Dr, Tyler, TX 75706",75706,Pro Tone Collision,Automotive,32.3790428,-95.2938957,Not Contacted,,,30,03/08/2026,Cold,0,70,High,85,42.6
CID-PRO410,"527 E Erwin St, Tyler, TX 75702",75702,Pro-Tech Services Air Conditioning And Heating,HVAC,32.3507014,-95.295181,Interested (Warm),11/07/2025,91,-77,11/21/2025,Interested (Warm),0.4,21,Low,25,72.6
CID-PRO266,"15230 TX-110, Whitehouse, TX 75791",75791,Project One Roofing,Construction,32.2579979,-95.2392711,Not Contacted,,,30,03/08/2026,Cold,0,70,High,85,42.6
CID-PRO359,"16678 State Hwy 155, Tyler, TX 75703",75703,Prolific Welding,Welding,32.2393567,-95.4046703,Interested (Warm),11/11/2025,87,-73,11/25/2025,Interested (Warm),0.4,15,Low,25,72.6
CID-PRO223,"719 W Front St #69, Tyler, TX 75702",75702,Proton Electric,Electrical,32.3470812,-95.3083903,Not Contacted,,,30,03/08/2026,Cold,0,50,High,85,42
CID-PUM366,"6461 Reynolds Rd, Tyler, TX 75708",75708,pump works,Manufacturing,32.3854242,-95.2800426,Interested (Warm),12/10/2025,58,-44,12/24/2025,Interested (Warm),0.4,75,Low,25,105
CID-PUR571,"605 Chase Dr, Tyler, TX 75701",75701,Pure Excellence Training Academy LLC,Other,32.3074044,-95.3073424,Not Contacted,,,30,03/08/2026,Cold,0,50,High,85,39
CID-PUR490,"2565 W Northwest Loop 323, Tyler, TX 75702",75702,Purvis Industries,Other,32.3821704,-95.3293381,Not Contacted,,,30,03/08/2026,Cold,0,50,High,85,39
CID-PYR224,"101 County Road 1215, Flint, TX 75762",75762,Pyramid Homes | Home Builders Tyler TX,Construction,32.1978798,-95.3210866,Not Contacted,,,30,03/08/2026,Cold,0,70,High,85,42.6
CID-QUA360,"3227 US-271, Tyler, TX 75708",75708,Quality Burning/T&G Welding,Welding,32.3782868,-95.2837922,Interested (Warm),11/13/2025,85,-71,11/27/2025,Interested (Warm),0.4,15,Low,25,72.6
CID-QUA121,"9335 Chisholm Trail, Tyler, TX 75703",75703,Quality Seamless Gutters,Gutter,32.2495433,-95.2913799,Not Contacted,,,30,03/08/2026,Cold,0,60,High,85,40.8
CID-QUA572,"205 W Locust St, Tyler, TX 75702",75702,Quantum Photonics,Other,32.3530105,-95.3020182,Not Contacted,,,30,03/08/2026,Cold,0,50,High,85,39
CID-R.D573,"11681 US Highway 69 N, Tyler, TX 75706",75706,R.D. Tires & Welding Services,Automotive,32.4342206,-95.3674778,Not Contacted,,,30,03/08/2026,Cold,0,70,High,85,42.6
CID-RAC491,"2318 TX-323 E Loop, Tyler, TX 75701",75701,RAC Rent A Center,Other,32.3122274,-95.2721374,Not Contacted,,,30,03/08/2026,Cold,0,50,High,85,39
CID-RAI391,"910 Peggy Dr, Whitehouse, TX 75791",75791,Rains Plumbing,Plumbing,32.2143457,-95.2164882,Not Contacted,,,30,03/08/2026,Cold,0,50,High,85,39
CID-RAM122,"2306 W Shaw St, Tyler, TX 75701",75701,Ramos Roofing & Remodeling Services,Roofing,32.3365088,-95.3272981,Not Contacted,,,30,03/08/2026,Cold,0,60,High,85,40.8
CID-RAM225,"10760 FM 850, Tyler, TX 75705",75705,Ramos Roofing and Remodling,Construction,32.3548609,-95.2325722,Not Contacted,,,30,03/08/2026,Cold,0,70,High,85,42.6
CID-RAN078,"13221 TX-364 Spur, Tyler, TX 75709",75709,Raney Appliance Service,Appliance,32.3180656,-95.3873152,Disqualified,01/14/2026,23,-23,01/14/2026,Disqualified,0,90,Medium,65,114
CID-RAY273,"626 Negem Dr, Tyler, TX 75702",75702,Ray Engine,Automotive,32.3568255,-95.320968,Account Won,11/07/2025,91,-90,11/08/2025,Active,1,21,Low,25,72.6
CID-RAY304,"1015 E Nutbush St, Tyler, TX 75702",75702,Ray's Automotive,Automotive,32.3682747,-95.2897039,Not Contacted,,,30,03/08/2026,Cold,0,70,High,85,42.6
CID-RAY361,"1326 W Gentry Pkwy, Tyler, TX 75702",75702,Rayson Autobody LLC,Automotive,32.3595696,-95.3156418,Account Won,11/18/2025,80,-79,11/19/2025,Active,1,21,Low,25,72.6
CID-RB2226,"12927 Yancy Ln, Tyler, TX 75707",75707,RB Roofing,Construction,32.2899613,-95.1479277,Not Contacted,,,30,03/08/2026,Cold,0,70,High,85,42.6
CID-RD1123,"11258 County Rd 492, Tyler, TX 75706",75706,"RD Roofing, Gutters & Tree Services",Roofing,32.4348317,-95.3515162,Not Contacted,,,30,03/08/2026,Cold,0,60,High,85,40.8
CID-REA574,"4306 Bob O Link Rd, Gilmer, TX 75645",75645,Reardon Plumbing,Plumbing,32.6713016,-94.9243779,Not Contacted,,,30,03/08/2026,Cold,0,50,High,85,39
CID-RED575,"285 Private Road 8612, Ben Wheeler, TX 75754",75754,Red Kingdom Plumbing LLC,Plumbing,32.4280098,-95.6096205,Not Contacted,,,30,03/08/2026,Cold,0,50,High,85,39
CID-RED227,"2301 S Broadway Ave, Tyler, TX 75701",75701,Redline Roofing Company,Construction,32.3239638,-95.3014293,Not Contacted,,,30,03/08/2026,Cold,0,70,High,85,42.6
CID-RED228,"3101 State Highway 31 E, Tyler, TX 75702",75702,redwood construction&remodeling LLC,Construction,32.3447571,-95.2602819,Not Contacted,,,30,03/08/2026,Cold,0,70,High,85,42.6
CID-REE085,"1001 W Elm St, Tyler, TX 75702",75702,Reece Plumbing,Metal Fabrication,32.3498366,-95.3118232,Not Interested,11/20/2025,78,102,05/19/2026,Disqualified,0,27,Low,25,26.2
CID-REF124,"240 S SW Loop 323 Suite B, Tyler, TX 75701",75701,Referred Roofing and Construction,Roofing,32.3497285,-95.3427534,Not Contacted,,,30,03/08/2026,Cold,0,60,High,85,40.8
CID-REG054,"10893 US-271, Tyler, TX 75708",75708,Regal Machine,Metal Fabrication,32.4172587,-95.2272846,Not Interested,01/15/2026,22,158,07/14/2026,Disqualified,0,90,Medium,65,64
CID-REG229,"3318 Timberlane Dr, Tyler, TX 75701",75701,Regal Roofing,Construction,32.3237855,-95.2544886,Not Contacted,,,30,03/08/2026,Cold,0,70,High,85,42.6
CID-REG802,"19630 Interstate 20 North Access Rd, Wills Point, TX 75169",75169,Regal Trailer Sales,Metal Fabrication,32.59382629,-95.8911972,Not Contacted,,,30,03/08/2026,Cold,0,90,High,85,46.2
CID-REN576,"4097 US-271, Tyler, TX 75708",75708,Renegade Custom Welding,Welding,32.3839892,-95.279929,Not Contacted,,,30,03/08/2026,Cold,0,50,High,85,42.6
CID-REP577,"12920 FM 2767, Tyler, TX 75708",75708,Republic Services Greenwood Farms Landfill,Other,32.3724491,-95.1883372,Not Contacted,,,30,03/08/2026,Cold,0,50,High,85,39
CID-RIC829,"215 Quail St, Van, TX 75790",75790,Ricky G's Auto Repair,Automotive,32.52324295,-95.63428497,Not Contacted,,,30,03/08/2026,Cold,0,70,High,85,42.6
CID-RIC492,"4801 Troup Hwy, Tyler, TX 75703",75703,Ricoh USA,Other,32.2990821,-95.2669745,Not Contacted,,,30,03/08/2026,Cold,0,50,High,85,39
CID-RIL230,"720 Vz County Rd 1311, Canton, TX 75103",75103,Riley Dirt Service,Construction,32.5384241,-95.7000912,Not Contacted,,,30,03/08/2026,Cold,0,70,High,85,42.6
CID-RIL267,"12245 County Rd 289, Tyler, TX 75707",75707,Riley Harris Construction,Construction,32.2998185,-95.1720456,Not Contacted,,,30,03/08/2026,Cold,0,70,High,85,42.6
CID-RIP578,"W 2nd St, Chandler, TX 75758",75758,Riprock Appliance Repair,Plumbing,32.2319094,-95.0502733,Not Contacted,,,30,03/08/2026,Cold,0,50,High,85,39
CID-RLM231,"1419 Lamar St, Tyler, TX 75701",75701,RLM General Contractors Tyler,Construction,32.3232514,-95.2845941,Not Contacted,,,30,03/08/2026,Cold,0,70,High,85,42.6
CID-ROB579,"12604 State Highway 155 S, Tyler, TX 75703",75703,Robertson Automotive,Automotive,32.2994348,-95.3433588,Not Contacted,,,30,03/08/2026,Cold,0,70,High,85,42.6
CID-RON125,"924 W Houston St, Tyler, TX 75702",75702,Ronin Gutter Co,Gutter,32.3435239,-95.3114145,Not Contacted,,,30,03/08/2026,Cold,0,60,High,85,40.8
CID-ROO232,"2100 W Shaw St, Tyler, TX 75701",75701,Roofing Contractors Tyler,Construction,32.3367083,-95.3240476,Not Contacted,,,30,03/08/2026,Cold,0,70,High,85,42.6
CID-ROO233,"4028 Stonebridge Dr, Tyler, TX 75707",75707,Roofing Tyler TX,Construction,32.3039801,-95.2355541,Not Contacted,,,30,03/08/2026,Cold,0,70,High,85,42.6
CID-ROO268,"12654 Old Noonday Rd, Tyler, TX 75703",75703,"Roofmaster Maintenance & Roofing, Inc.",Construction,32.29798,-95.3388137,Not Contacted,,,30,03/08/2026,Cold,0,70,High,85,42.6
CID-ROS329,"802 S SW Loop 323, Tyler, TX 75701",75701,Rose City Air,HVAC,32.3408348,-95.339092,Interested (Warm),11/26/2025,72,-58,12/10/2025,Interested (Warm),0.4,21,Low,25,72.6
CID-ROS377,"13652 State Hwy 31 W, Tyler, TX 75709",75709,Rose City Fab,Manufacturing,32.3325517,-95.3958775,Initial Contact,12/22/2025,46,-16,01/21/2026,Interested (Warm),0.2,75,Low,25,105
CID-ROS234,"625 W Dobbs St, Tyler, TX 75701",75701,Rosley Homes,Construction,32.3394841,-95.307606,Not Contacted,,,30,03/08/2026,Cold,0,70,High,85,42.6
CID-ROS580,"1074 Merrill Lake Rd, Longview, TX 75604",75604,Ross Plumbinng Llc.,Plumbing,32.4919712,-94.8772101,Not Contacted,,,30,03/08/2026,Cold,0,50,High,85,39
CID-ROT149,"12319 County Road 1114, Tyler, TX 75709",75709,Roto-Rooter Plumbing & Drain Services,Construction,32.3027282,-95.3453352,Not Contacted,,,30,03/08/2026,Cold,0,70,High,85,42.6
CID-ROY493,"3300 TX-281 W Loop, Longview, TX 75604",75604,Royal Plumbing and Construction LLC,Plumbing,32.4983892,-94.7803884,Not Contacted,,,30,03/08/2026,Cold,0,50,High,85,39
CID-ROY632,"906 E Locust St, Tyler, TX 75702",75702,Roys' Metal Recycling      ,Metal Fabrication,32.3526787,-95.2913314,Not Contacted,,,30,03/08/2026,Cold,0,90,High,85,46.2
CID-ROZ374,"14264 Hwy 64 W, Tyler, TX 75704",75704,Rozells,Other,32.320161,-95.2155351,Interested (Warm),12/22/2025,46,-32,01/05/2026,Interested (Warm),0.4,50,Low,25,90
CID-RUB411,"13213 State Hwy 155 Ste A, Tyler, TX 75703",75703,Rub-A-Dub Plumbing Tyler,Plumbing,32.2891514,-95.3521922,Not Contacted,,,30,03/08/2026,Cold,0,50,High,85,39
CID-RUD581,"11014 FM 3226, Arp, TX 75750",75750,Rudd Manufacturing and Custom Welding,Welding,32.3185722,-95.1372965,Not Contacted,,,30,03/08/2026,Cold,0,50,High,85,42.6
CID-RUD412,"1502 E Erwin St, Tyler, TX 75702",75702,Rudd Plumbing,Plumbing,32.351506,-95.2825533,Not Contacted,,,30,03/08/2026,Cold,0,50,High,85,39
CID-RUG582,"170 County Road 2768, Mineola, TX 75773",75773,Rugged Cross Welding LLC,Welding,32.6262093,-95.4181974,Not Contacted,,,30,03/08/2026,Cold,0,50,High,85,42.6
CID-RUS583,"3505 W Way St, Tyler, TX 75703",75703,Rusty's Weigh Scales & Service Inc.,Other,32.2993695,-95.339285,Not Contacted,,,30,03/08/2026,Cold,0,50,High,85,39
CID-S&3305,"3055 E 5th St, Tyler, TX 75701",75701,S & J Automotive,Automotive,32.3322643,-95.2586293,Not Contacted,,,30,03/08/2026,Cold,0,70,High,85,42.6
CID-S&2272,"933 Whipporwill Dr, Murchison, TX 75778",75778,S & K Electronics,Electrical,32.3734675,-95.6901106,Not Contacted,,,30,03/08/2026,Cold,0,50,High,85,42
CID-SA1126,"4529 County Rd 149, Flint, TX 75762",75762,S and S Gutter Services,Gutter,32.1872096,-95.3262014,Not Contacted,,,30,03/08/2026,Cold,0,60,High,85,40.8
CID-SAC055,"10730 TX-149, Longview, TX 75603",75603,Sac Manufacturing Inc,Metal Fabrication,32.3836039,-94.6511092,Not Contacted,,,30,03/08/2026,Cold,0,90,High,85,46.2
CID-SAF806,"I-20 W & Frontage Rd, Van, TX 75790",75790,"Safeguard Metal Buildings, Inc. Van Division",Manufacturing,32.49971771,-95.59081268,Not Contacted,,,30,03/08/2026,Cold,0,75,High,85,43.8
CID-SAN320,"2515 E Commerce St, Tyler, TX 75702",75702,Santiago Paint and Body,Automotive,32.3556204,-95.2694287,Not Contacted,,,30,03/08/2026,Cold,0,70,High,85,42.6
CID-SAW101,"12562 State Hwy 64, Tyler, TX 75704",75704,Sawyer Metal,Construction,32.361276,-95.3754708,Interested (Warm),11/14/2025,84,-70,11/28/2025,Interested (Warm),0.4,21,Low,25,72.6
CID-SAW376,"12562 Hwy 64 W, Tyler, TX 75704",75704,Sawyer Metals,Metal Fabrication,32.320161,-95.2155351,Initial Contact,12/22/2025,46,-16,01/21/2026,Interested (Warm),0.2,90,Low,25,114
CID-SCA235,"9395 FM 2767, Tyler, TX 75708",75708,Scandrill Inc,Construction,32.3619622,-95.2467269,Not Contacted,,,30,03/08/2026,Cold,0,70,High,85,42.6
CID-SEA494,"3510 McCann Rd, Longview, TX 75605",75605,Sears Appliance Repair,Plumbing,32.5392701,-94.7519256,Not Contacted,,,30,03/08/2026,Cold,0,50,High,85,39
CID-SEA420,"212 N Bonner Ave, Tyler, TX 75702",75702,Sears Heating and Air Conditioning,HVAC,32.3522118,-95.3060022,Not Contacted,,,30,03/08/2026,Cold,0,70,High,85,42.6
CID-SEC362,"10504 County Rd 490, Tyler, TX 75706",75706,Second Generation Arc N Spark Welding,Other,32.4108115,-95.3394002,Interested (Warm),11/17/2025,81,-67,12/01/2025,Interested (Warm),0.4,15,Low,25,69
CID-SEC865,"10504 County Road 490, Tyler, TX 75706",75706,"Second Generation Arc N Spark Welding, LLC.",Welding,32.41078568,-95.33937836,Not Contacted,,,30,03/08/2026,Cold,0,50,High,85,42.6
CID-SER306,"4827 Troup Hwy, Tyler, TX 75703",75703,Service Department Fairway Auto Center,Automotive,32.2979231,-95.2652471,Not Contacted,,,30,03/08/2026,Cold,0,70,High,85,42.6
CID-SGS127,"Private Address in Berryville, Texas",75762,SGS Gutters,Gutter,32.0884931,-95.4719003,Not Contacted,,,30,03/08/2026,Cold,0,60,High,85,40.8
CID-SHA584,"5575 Old Jacksonville Hwy, Tyler, TX 75703",75703,Shaw Projects & Modules - Tyler,Other,32.2877895,-95.3302383,Not Contacted,,,30,03/08/2026,Cold,0,50,High,85,39
CID-SHE413,"2020 Capital Drive, Tyler, TX 75701",75701,Shearer Supply Tyler,HVAC,32.2968366,-95.3284383,Not Contacted,,,30,03/08/2026,Cold,0,70,High,85,42.6
CID-SHE852,"20907 I 20, Canton, TX 75103",75103,Shed-Wright,Metal Fabrication,32.59802246,-95.91225433,Not Contacted,,,30,03/08/2026,Cold,0,90,High,85,46.2
CID-SHS585,"1607 N Longview St, Kilgore, TX 75662",75662,SHS Welding,Welding,32.4003062,-94.865515,Not Contacted,,,30,03/08/2026,Cold,0,50,High,85,42.6
CID-SHU586,"1503 S Jackson St, Jacksonville, TX 75766",75766,Shug's Appliance Parts and Services LLC,Other,31.9500388,-95.2628663,Not Contacted,,,30,03/08/2026,Cold,0,50,High,85,39
CID-SID236,"120 W 5th St, Tyler, TX 75701",75701,SIDAR Builders LLC,Construction,32.3303656,-95.3019164,Not Contacted,,,30,03/08/2026,Cold,0,70,High,85,42.6
CID-SMA587,"3841 State Highway 64 W, Tyler, TX 75704",75704,"SmartPhone ER Repair | Phones, Tablets, Game Consoles, and Laptop Repair 64",Plumbing,32.354855,-95.3463046,Not Contacted,,,30,03/08/2026,Cold,0,50,High,85,39
CID-SMA588,"1801 TX-323 E Loop, Tyler, TX 75701",75701,"SmartPhone ER Repair | Phones, Tablets, Game Consoles, and Laptop Repair's",Plumbing,32.308552,-95.278554,Not Contacted,,,30,03/08/2026,Cold,0,50,High,85,39
CID-SMA590,"5111 Troup Hwy, Tyler, TX 75707",75707,"SmartPhone ER Repair |TROUP | Phones, Tablets, Game Consoles, and Laptop Repair",Plumbing,32.2939136,-95.2612257,Not Contacted,,,30,03/08/2026,Cold,0,50,High,85,39
CID-SMI853,"17919 I 20, Canton, TX 75103",75103,SMI Buildings,Construction,32.58229446,-95.86665344,Not Contacted,,,30,03/08/2026,Cold,0,70,High,85,42.6
CID-SMI384,"831 W Erwin St, Tyler, TX 75702",75702,Smith Offroad,Other,32.3509549,-95.3100258,Interested (Warm),01/08/2026,29,-15,01/22/2026,Interested (Warm),0.4,50,Medium,65,90
CID-SMI591,"606 S Commerce St, Kilgore, TX 75662",75662,Smith Plumbing LLC,Plumbing,32.3827335,-94.8802843,Not Contacted,,,30,03/08/2026,Cold,0,50,High,85,39
CID-SMI056,"17794 FM3079, Chandler, TX 75758",75758,Smith-Fab Custom Steel Buildings,Metal Fabrication,32.258658,-95.5624666,Not Contacted,,,30,03/08/2026,Cold,0,90,High,85,46.2
CID-SMO057,"1800 Cherokee Trace, White Oak, TX 75693",75693,Smooth Fabrication,Metal Fabrication,32.509776,-94.867609,Not Contacted,,,30,03/08/2026,Cold,0,90,High,85,46.2
CID-SOM592,"408 Lyles St, Big Sandy, TX 75755",75755,Sommers Welding,Welding,32.5800755,-95.1160314,Not Contacted,,,30,03/08/2026,Cold,0,50,High,85,42.6
CID-SOU383,"12547 State Highway 31 W Bldg B, Tyler, TX 75709",75709,Southern Comfort Heating and Air,Plumbing,32.3359887,-95.3753896,Not Contacted,01/08/2026,29,-15,01/22/2026,Cold,0,50,Medium,65,90
CID-SOU237,"10278 County Road 489, Tyler, TX 75706",75706,"Southern Roots Steel Erectors, Inc.",Construction,32.4153719,-95.3371242,Not Contacted,,,30,03/08/2026,Cold,0,70,High,85,42.6
CID-SOU865,"485 NE Loop 564, Mineola, TX 75773",75773,Southwest Steel Buildings,Metal Fabrication,32.68857574,-95.47248077,Not Contacted,,,30,03/08/2026,Cold,0,90,High,85,46.2
CID-SPE593,"2609 TX-323 S Loop, Tyler, TX 75701",75701,Spea America,Other,32.3217658,-95.3426329,Not Contacted,,,30,03/08/2026,Cold,0,50,High,85,39
CID-SPE495,"9186 Hwy 64, Tyler, TX 75707",75707,Specialty Auto Body,Automotive,32.320161,-95.2155351,Not Contacted,,,30,03/08/2026,Cold,0,70,High,85,42.6
CID-SPE633,"1820 Shiloh Rd Ste 1403, Tyler, TX 75703",75703,Speedy Dumpster Solutions - Tyler,Other,32.2956835,-95.2806887,Not Contacted,,,30,03/08/2026,Cold,0,50,High,85,39
CID-SPU058,"3182 TX-124 Loop, Tyler, TX 75707",75707,Spur Machine Works Inc,Metal Fabrication,32.3360584,-95.2570276,Follow-Up,,,30,03/08/2026,Interested (Warm),0.2,90,High,85,46.2
CID-SQU011,"16421 FM 756, Tyler, TX 75703",75703,Squiers Metal Fabrication Inc,Metal Fabrication,32.2413257,-95.2718047,Not Interested,01/09/2026,28,152,07/08/2026,Disqualified,0,90,Medium,65,64
CID-SRS506,"10145 State Highway 64 E, Tyler, TX 75707",75707,SRS Building Products,Other,32.3319103,-95.2421669,Not Contacted,,,30,03/08/2026,Cold,0,50,High,85,39
CID-ST3368,"6357 Reynolds Rd, Tyler, TX 75708",75708,st fastener,Other,32.3851265,-95.2784344,Interested (Warm),12/10/2025,58,-44,12/24/2025,Interested (Warm),0.4,50,Low,25,90
CID-STA004,"11967 State Hwy 64, Tyler, TX 75704",75704,Stainless Steel Fabricators,Metal Fabrication,32.3575579,-95.364907,Initial Contact,12/22/2025,46,-16,01/21/2026,Interested (Warm),0.2,90,Low,25,114
CID-STA594,"1216 S Bennett Ave, Tyler, TX 75701",75701,Standard Supply Tyler Branch,Other,32.3349702,-95.3364364,Not Contacted,,,30,03/08/2026,Cold,0,50,High,85,39
CID-STE059,"4555 N Jackson St, Jacksonville, TX 75766",75766,Stencor Company LLC,Metal Fabrication,32.0140333,-95.2815794,Not Contacted,,,30,03/08/2026,Cold,0,90,High,85,46.2
CID-STE595,"5711 S Broadway Ave, Tyler, TX 75703",75703,Stereo & Video Center,Other,32.2866569,-95.304565,Not Contacted,,,30,03/08/2026,Cold,0,50,High,85,39
CID-STE467,"13041 State Highway 64 E, Tyler, TX 75707",75707,Steve's Window Cleaning,Other,32.3118639,-95.1916656,Not Contacted,,,30,03/08/2026,Cold,0,50,High,85,39
CID-STE238,"401 Troup Hwy, Tyler, TX 75701",75701,Stewart's Donnybrook Automotive,Electrical,32.3255605,-95.2971055,Not Contacted,,,30,03/08/2026,Cold,0,50,High,85,42
CID-STO423,"2320 E Erwin St STE C, Tyler, TX 75702",75702,StoneBridge Heating & Air Conditioning,HVAC,32.3519019,-95.2717403,Not Contacted,,,30,03/08/2026,Cold,0,70,High,85,42.6
CID-SUN060,"3240 Birdwell Dr, Tyler, TX 75701",75701,SunSource,Metal Fabrication,32.313046,-95.2824844,Not Contacted,,,30,03/08/2026,Cold,0,90,High,85,46.2
